name,gppd_idnr,capacity_mw,latitude,longitude,primary_fuel,other_fuel1,other_fuel2,other_fuel3,commissioning_year,owner,source,url,geolocation_source,wepp_id,year_of_capacity_data,generation_gwh_2013,generation_gwh_2014,generation_gwh_2015,generation_gwh_2016,generation_gwh_2017,generation_gwh_2018,generation_gwh_2019,generation_data_source,estimated_generation_gwh_2013,estimated_generation_gwh_2014,estimated_generation_gwh_2015,estimated_generation_gwh_2016,estimated_generation_gwh_2017,estimated_generation_note_2013,estimated_generation_note_2014,estimated_generation_note_2015,estimated_generation_note_2016,estimated_generation_note_2017,state
Harbec Energy,USA0062736,1.7,43.2273,-77.3641,Wind,Gas,,,2011.411765,Harbec Energy,U.S. Energy Information Administration,http://www.eia.gov/electricity/data/browser/,U.S. Energy Information Administration,,2019,,,,,,,0.505,U.S. Energy Information Administration,4.6,3.79,3.69,3.89,3.83,WIND-V1,WIND-V1,WIND-V1,WIND-V1,WIND-V1,New York
Lamar Plant,USA0000508,8,38.0333,-102.5379,Wind,Oil,,,1989.875,City of Lamar - (CO),U.S. Energy Information Administration,http://www.eia.gov/electricity/data/browser/,U.S. Energy Information Administration,,2019,0,0,0,0,0,0,9.95,U.S. Energy Information Administration,,,,,23.49,NO-ESTIMATION,NO-ESTIMATION,NO-ESTIMATION,NO-ESTIMATION,CAPACITY-FACTOR-V1,Colorado
DOE Golden NWTC Research Side Hybrid,USA0057693,7.8,39.9139,-105.2153,Wind,Solar,Storage,,2012.564103,DOE National Renewable Energy Laboratory,U.S. Energy Information Administration,http://www.eia.gov/electricity/data/browser/,U.S. Energy Information Administration,,2019,5.211,0.207,3.837,1.177,1.225,0.083,2.053,U.S. Energy Information Administration,28.66,22.37,23.12,23.57,22.87,WIND-V1,WIND-V1,WIND-V1,WIND-V1,WIND-V1,Colorado
Kingman 1,USA0057775,10.5,35.1458,-114.0675,Wind,Solar,,,2011,Brookfield Renewable Trading and Marketing LP,U.S. Energy Information Administration,http://www.eia.gov/electricity/data/browser/,U.S. Energy Information Administration,,2019,22.609,0,0,0,0,0,28.607,U.S. Energy Information Administration,32.47,29.67,29.28,31,30.43,WIND-V1,WIND-V1,WIND-V1,WIND-V1,WIND-V1,Arizona
Lake Region Community Hybrid  LLC,USA0062442,2.5,46.5051,-96.1573,Wind,Solar,,,2019,Lake Region Community Hybrid  LLC,U.S. Energy Information Administration,http://www.eia.gov/electricity/data/browser/,U.S. Energy Information Administration,,2019,,,,,,0.003,6.026,U.S. Energy Information Administration,,,,,7.34,NO-ESTIMATION,NO-ESTIMATION,NO-ESTIMATION,NO-ESTIMATION,CAPACITY-FACTOR-V1,Minnesota
Wild Horse,USA0056322,273.1,47.0363,-120.2065,Wind,Solar,,,2007.322226,Puget Sound Energy Inc,U.S. Energy Information Administration,http://www.eia.gov/electricity/data/browser/,U.S. Energy Information Administration,52656,2019,659.863,650.563,609.963,672.926,613.464,639.178,613.275,U.S. Energy Information Administration,758.02,644.14,823.37,763.86,778.47,WIND-V1,WIND-V1,WIND-V1,WIND-V1,WIND-V1,Washington
Auwahi Wind Energy Hybrid,USA0057996,35,20.596,-156.318,Wind,Storage,,,2013,Auwahi Wind Energy LLC,U.S. Energy Information Administration,http://www.eia.gov/electricity/data/browser/,U.S. Energy Information Administration,55964,2019,0,0,87.734,84.104,73.288,88.056,86.31,U.S. Energy Information Administration,,122.01,132.05,109.53,101.64,NO-ESTIMATION,WIND-V1,WIND-V1,WIND-V1,WIND-V1,Hawaii
Casa Mesa Wind Energy Center Hybrid,USA0061925,51.9,34.605,-103.9661,Wind,Storage,,,2018,Casa Mesa Wind  LLC,U.S. Energy Information Administration,http://www.eia.gov/electricity/data/browser/,U.S. Energy Information Administration,,2019,,,,,,18.793,188.021,U.S. Energy Information Administration,,,,,152.41,NO-ESTIMATION,NO-ESTIMATION,NO-ESTIMATION,NO-ESTIMATION,CAPACITY-FACTOR-V1,New Mexico
FPL Energy Illinois Wind LLC Hybrid,USA0057325,237.5,41.7678,-88.8867,Wind,Storage,,,2010.336842,FPL Energy Illinois Wind LLC,U.S. Energy Information Administration,http://www.eia.gov/electricity/data/browser/,U.S. Energy Information Administration,,2019,643.491,685.114,667.521,0,688.197,631.903,662.218,U.S. Energy Information Administration,675.9,674.86,673.25,646.05,657.85,WIND-V1,WIND-V1,WIND-V1,WIND-V1,WIND-V1,Illinois
Inadale Wind Farm LLC Hybrid,USA0056984,206.9,32.4969,-100.5797,Wind,Storage,,,2009.430643,RWE Renewables Americas LLC,U.S. Energy Information Administration,http://www.eia.gov/electricity/data/browser/,U.S. Energy Information Administration,58739,2019,549.3,592.687,495.005,539.177,0,0,536.092,U.S. Energy Information Administration,663.07,637.17,570.42,589.26,582.55,WIND-V1,WIND-V1,WIND-V1,WIND-V1,WIND-V1,Texas
Kaheawa Wind Power II LLC,USA0057082,31,20.7947,-156.536,Wind,Storage,,,2012,First Wind O&M  LLC,U.S. Energy Information Administration,http://www.eia.gov/electricity/data/browser/,U.S. Energy Information Administration,,2019,0,0,65.878,0,0,0,63.843,U.S. Energy Information Administration,109.64,103.99,99.59,95.28,93.37,WIND-V1,WIND-V1,WIND-V1,WIND-V1,WIND-V1,Hawaii
Laurel Mountain Hybrid,USA0057447,113.6,39.0072,-79.8866,Wind,Storage,,,2011,AES Wind Generation Inc,U.S. Energy Information Administration,http://www.eia.gov/electricity/data/browser/,U.S. Energy Information Administration,58124,2019,0,0,222.352,213.281,241.651,239.327,227.084,U.S. Energy Information Administration,408.14,389.7,418.51,399.4,391.31,WIND-V1,WIND-V1,WIND-V1,WIND-V1,WIND-V1,West Virginia
Notrees Windpower Hybrid,USA0056961,188.5,31.995,-102.8283,Wind,Storage,,,2009.763926,Duke Energy DEGS Notrees,U.S. Energy Information Administration,http://www.eia.gov/electricity/data/browser/,U.S. Energy Information Administration,55701,2019,0,0,389.735,411.82,422.504,396.784,394.344,U.S. Energy Information Administration,581.96,568.6,515.21,533.72,533.76,WIND-V1,WIND-V1,WIND-V1,WIND-V1,WIND-V1,Texas
Pyron Wind Farm LLC Hybrid,USA0056981,258.9,32.5886,-100.6728,Wind,Storage,,,2009.344148,RWE Renewables Americas LLC,U.S. Energy Information Administration,http://www.eia.gov/electricity/data/browser/,U.S. Energy Information Administration,63213,2019,775.605,811.344,706.057,772.988,712.817,734.913,755.171,U.S. Energy Information Administration,897.32,771.47,716.4,758.75,718.3,WIND-V1,WIND-V1,WIND-V1,WIND-V1,WIND-V1,Texas
Rolling Thunder Wind Farm Hybrid,USA0057045,25.8,44.4778,-99.1339,Wind,Storage,,,2009.27907,AE Power Services LLC,U.S. Energy Information Administration,http://www.eia.gov/electricity/data/browser/,U.S. Energy Information Administration,,2019,84.938,93.096,93.93,98.369,91.243,0,80.025,U.S. Energy Information Administration,86.65,89.33,78.41,89.27,73.73,WIND-V1,WIND-V1,WIND-V1,WIND-V1,WIND-V1,South Dakota
85 A,USA0052162,14.1,35.1011,-118.3372,Wind,,,,1985,Tehachapi Wind Wall  LLC,U.S. Energy Information Administration,http://www.eia.gov/electricity/data/browser/,U.S. Energy Information Administration,,2019,18.64,16.839,13.347,16.012,16.521,15.766,12.194,U.S. Energy Information Administration,18.01,17.18,19.54,20.71,22.04,WIND-V1,WIND-V1,WIND-V1,WIND-V1,WIND-V1,California
85 B,USA0052163,21.2,35.1011,-118.3372,Wind,,,,1985,Tehachapi Wind Wall  LLC,U.S. Energy Information Administration,http://www.eia.gov/electricity/data/browser/,U.S. Energy Information Administration,,2019,25.968,22.336,17.296,20.601,16.355,18.824,16.181,U.S. Energy Information Administration,21.49,19.64,22.46,23.4,23.01,WIND-V1,WIND-V1,WIND-V1,WIND-V1,WIND-V1,California
Adair Wind Farm,USA0056810,174.8,41.4236,-94.665,Wind,,,,2009,MidAmerican Energy Co,U.S. Energy Information Administration,http://www.eia.gov/electricity/data/browser/,U.S. Energy Information Administration,60535,2019,523.247,490.31,470.368,485.613,471.946,414.15,393.032,U.S. Energy Information Administration,596.75,558.58,501.28,520.03,517.28,WIND-V1,WIND-V1,WIND-V1,WIND-V1,WIND-V1,Iowa
Adams Wind,USA0059637,154.3,40.92,-94.6717,Wind,,,,2015.688918,MidAmerican Energy Co,U.S. Energy Information Administration,http://www.eia.gov/electricity/data/browser/,U.S. Energy Information Administration,55940,2019,,,34.999,483.943,485.774,459.96,457.394,U.S. Energy Information Administration,,,,546,536.94,NO-ESTIMATION,NO-ESTIMATION,NO-ESTIMATION,WIND-V1,WIND-V1,Iowa
Adams Wind Farm,USA0056307,23.3,43.5548,-92.7241,Wind,,,,2003.420601,Consolidated Edison Development Inc.,U.S. Energy Information Administration,http://www.eia.gov/electricity/data/browser/,U.S. Energy Information Administration,55940,2019,59.686,60.767,59.207,57.259,55.159,47.27,45.609,U.S. Energy Information Administration,71.49,72.97,74.01,62.55,66.06,WIND-V1,WIND-V1,WIND-V1,WIND-V1,WIND-V1,Minnesota
Adams Wind Generations LLC,USA0057375,20,44.9169,-94.7356,Wind,,,,2011,BEAM US  LLC,U.S. Energy Information Administration,http://www.eia.gov/electricity/data/browser/,U.S. Energy Information Administration,,2019,64.746,67.287,66.281,64.864,49.221,52.285,55.319,U.S. Energy Information Administration,76.24,78.87,63.36,60.51,61.92,WIND-V1,WIND-V1,WIND-V1,WIND-V1,WIND-V1,Minnesota
Aeolus Wind Facility,USA0056225,3,36.4725,-101.3278,Wind,,,,2004,Aeolus Wind LLC,U.S. Energy Information Administration,http://www.eia.gov/electricity/data/browser/,U.S. Energy Information Administration,,2019,1.50678,0.729,3.01,2.408,1.111,3.099,6.102,U.S. Energy Information Administration,8.65,7.84,8.68,7.27,8.25,WIND-V1,WIND-V1,WIND-V1,WIND-V1,WIND-V1,Texas
Agassiz Beach LLC,USA0055576,1.9,47.0053,-96.4356,Wind,,,,2001,CHI Operations Inc,U.S. Energy Information Administration,http://www.eia.gov/electricity/data/browser/,U.S. Energy Information Administration,48477,2019,5.082,5.483,5.53,5.379,4.324,4.355,3.893,U.S. Energy Information Administration,5.02,5.73,5.23,5.18,5.04,WIND-V1,WIND-V1,WIND-V1,WIND-V1,WIND-V1,Minnesota
Agriwind,USA0056408,8.4,41.3017,-89.6236,Wind,,,,2007,AgriWind Project  LLC,U.S. Energy Information Administration,http://www.eia.gov/electricity/data/browser/,U.S. Energy Information Administration,62635,2019,5.952,6.271,6.235,5.891,23.378,20.756,15.456,U.S. Energy Information Administration,19.56,21.87,19.66,20.22,21.16,WIND-V1,WIND-V1,WIND-V1,WIND-V1,WIND-V1,Illinois
Ainsworth Wind,USA0056162,59.4,42.4489,-99.8917,Wind,,,,2005,Nebraska Public Power District,U.S. Energy Information Administration,http://www.eia.gov/electricity/data/browser/,U.S. Energy Information Administration,52095,2019,185.115,194.809,192.618,176.314,162.168,166.509,127.261,U.S. Energy Information Administration,194.01,180.21,184.63,173,173.29,WIND-V1,WIND-V1,WIND-V1,WIND-V1,WIND-V1,Nebraska
Alexander Wind Farm LLC,USA0058666,50.7,38.4247,-99.5075,Wind,,,,2016,SRIV Partnership LLC,U.S. Energy Information Administration,http://www.eia.gov/electricity/data/browser/,U.S. Energy Information Administration,61750,2019,,,18.96,203.443,218.555,208.48,218.361,U.S. Energy Information Administration,,,,,224.32,NO-ESTIMATION,NO-ESTIMATION,NO-ESTIMATION,NO-ESTIMATION,WIND-V1,Kansas
Allegheny Ridge Wind Farm,USA0056451,80,40.3839,-78.5794,Wind,,,,2007,Leeward Asset Management  LLC,U.S. Energy Information Administration,http://www.eia.gov/electricity/data/browser/,U.S. Energy Information Administration,55121,2019,162.302,202.479,188.143,202.849,212.986,215.962,194.116,U.S. Energy Information Administration,251.27,244.52,228.95,252.58,234.47,WIND-V1,WIND-V1,WIND-V1,WIND-V1,WIND-V1,Pennsylvania
Allendorf,USA0056215,3.8,43.4,-95.6333,Wind,,,,2000.631579,E&E Enterprises LLC,U.S. Energy Information Administration,http://www.eia.gov/electricity/data/browser/,U.S. Energy Information Administration,,2019,1.779,1.912,2.048,4.024,5.073,3.475,1.472,U.S. Energy Information Administration,10.39,10.01,10.41,10.47,9.16,WIND-V1,WIND-V1,WIND-V1,WIND-V1,WIND-V1,Iowa
Alta Wind Energy Center I,USA0057282,150,35.0337,-118.3534,Wind,,,,2011,NRG Yield LLC,U.S. Energy Information Administration,http://www.eia.gov/electricity/data/browser/,U.S. Energy Information Administration,56708,2019,398.985,403.255,341.12,413.363,366.518,399.302,366.019,U.S. Energy Information Administration,439.46,428.92,385.54,433.68,403.07,WIND-V1,WIND-V1,WIND-V1,WIND-V1,WIND-V1,California
Alta Wind Energy Center II,USA0057291,150,35.0239,-118.2953,Wind,,,,2011,NRG Yield LLC,U.S. Energy Information Administration,http://www.eia.gov/electricity/data/browser/,U.S. Energy Information Administration,56708,2019,348.908,328.958,279.829,360.216,325.932,349.772,366.72,U.S. Energy Information Administration,464.99,410.81,411.73,415.71,404.23,WIND-V1,WIND-V1,WIND-V1,WIND-V1,WIND-V1,California
Alta Wind Energy Center III,USA0057292,150,35.0239,-118.2953,Wind,,,,2011,NRG Yield LLC,U.S. Energy Information Administration,http://www.eia.gov/electricity/data/browser/,U.S. Energy Information Administration,56708,2019,361.051,349.245,300.282,380.465,350.502,361.029,261.255,U.S. Energy Information Administration,464.99,410.81,411.73,415.71,404.23,WIND-V1,WIND-V1,WIND-V1,WIND-V1,WIND-V1,California
Alta Wind Energy Center IV,USA0057293,102,35.0086,-118.2422,Wind,,,,2011,NRG Yield LLC,U.S. Energy Information Administration,http://www.eia.gov/electricity/data/browser/,U.S. Energy Information Administration,56708,2019,178.777,168.32,134.744,183.393,162.752,178.715,150.299,U.S. Energy Information Administration,318.18,282.4,280.25,279.04,286.92,WIND-V1,WIND-V1,WIND-V1,WIND-V1,WIND-V1,California
Alta Wind Energy Center V,USA0057294,168,35.0086,-118.2422,Wind,,,,2011,NRG Yield LLC,U.S. Energy Information Administration,http://www.eia.gov/electricity/data/browser/,U.S. Energy Information Administration,56708,2019,283.238,269.901,220.012,293.378,263.466,284.839,311.896,U.S. Energy Information Administration,478.49,444.54,442.2,411.6,438.57,WIND-V1,WIND-V1,WIND-V1,WIND-V1,WIND-V1,California
Alta Wind VIII,USA0057835,150,35.0267,-118.2348,Wind,,,,2012,Brookfield Renewable Trading and Marketing LP,U.S. Energy Information Administration,http://www.eia.gov/electricity/data/browser/,U.S. Energy Information Administration,56708,2019,285.358,282.719,231.524,294.789,251.38,270.077,237.117,U.S. Energy Information Administration,422.63,442.65,429.75,397.06,414.17,WIND-V1,WIND-V1,WIND-V1,WIND-V1,WIND-V1,California
Alta Wind X,USA0058394,138,35.06,-118.2,Wind,,,,2014,NRG Yield LLC,U.S. Energy Information Administration,http://www.eia.gov/electricity/data/browser/,U.S. Energy Information Administration,56708,2019,,328.08,309.408,364.926,340.379,373.532,366.641,U.S. Energy Information Administration,,,428.96,391.54,383.37,NO-ESTIMATION,NO-ESTIMATION,WIND-V1,WIND-V1,WIND-V1,California
Alta Wind XI,USA0058395,90,35.065,-118.39,Wind,,,,2014,NRG Yield LLC,U.S. Energy Information Administration,http://www.eia.gov/electricity/data/browser/,U.S. Energy Information Administration,56708,2019,,249.985,222.142,276.368,248.865,261.386,246.686,U.S. Energy Information Administration,,,288.58,283.86,250.94,NO-ESTIMATION,NO-ESTIMATION,WIND-V1,WIND-V1,WIND-V1,California
Altech III,USA0050485,25.1,33.915,-116.5551,Wind,,,,1985.864542,Terra-Gen Operating Co-Wind,U.S. Energy Information Administration,http://www.eia.gov/electricity/data/browser/,U.S. Energy Information Administration,46572,2019,37.657,37.867,28.752,30.957,21.522,9.16,4.982,U.S. Energy Information Administration,35.31,33.51,30.4,37.34,39.01,WIND-V1,WIND-V1,WIND-V1,WIND-V1,WIND-V1,California
Anacacho Wind Farm  LLC,USA0058000,99.8,29.2347,-100.2092,Wind,,,,2013,RWE Renewables Americas LLC,U.S. Energy Information Administration,http://www.eia.gov/electricity/data/browser/,U.S. Energy Information Administration,64478,2019,329.929,355.227,326.909,338.846,332.715,328.792,327.914,U.S. Energy Information Administration,,344.44,335.58,296.22,277.62,NO-ESTIMATION,WIND-V1,WIND-V1,WIND-V1,WIND-V1,Texas
Anchor Wind  LLC,USA0058044,6,41.8508,-91.2342,Wind,,,,2012,Acciona Energy USA Global  LLC,U.S. Energy Information Administration,http://www.eia.gov/electricity/data/browser/,U.S. Energy Information Administration,,2019,11.332,18.414,15.193,7.084,11.784,12.039,11.188,U.S. Energy Information Administration,19.9,22.19,18,13.6,16.61,WIND-V1,WIND-V1,WIND-V1,WIND-V1,WIND-V1,Iowa
Anderson Wind I,USA0058939,5,33.0294,-103.8558,Wind,,,,2015,BayWa r.e Wind LLC,U.S. Energy Information Administration,http://www.eia.gov/electricity/data/browser/,U.S. Energy Information Administration,,2019,,0.003,15.887,17.782,18.232,18.253,18.22,U.S. Energy Information Administration,,,,16.46,15.44,NO-ESTIMATION,NO-ESTIMATION,NO-ESTIMATION,WIND-V1,WIND-V1,New Mexico
Anderson Wind II,USA0058940,10,33.0139,-103.865,Wind,,,,2015,BayWa r.e Wind LLC,U.S. Energy Information Administration,http://www.eia.gov/electricity/data/browser/,U.S. Energy Information Administration,,2019,,0.004,39.972,40.666,43.426,44.291,44.302,U.S. Energy Information Administration,,,,34.19,32.54,NO-ESTIMATION,NO-ESTIMATION,NO-ESTIMATION,WIND-V1,WIND-V1,New Mexico
Anheuser-Busch #2,USA0059331,1.6,38.2336,-122.0925,Wind,,,,2014,Foundation CA Fund VII Manager  LLC,U.S. Energy Information Administration,http://www.eia.gov/electricity/data/browser/,U.S. Energy Information Administration,,2019,,0.074,2.463,3.936,3.433,3.509,3.67,U.S. Energy Information Administration,,,4.02,4.13,3.37,NO-ESTIMATION,NO-ESTIMATION,WIND-V1,WIND-V1,WIND-V1,California
Antrim Wind,USA0059953,28.8,43.0643,-72.0063,Wind,,,,2020,Antrim Wind Energy LLC,U.S. Energy Information Administration,http://www.eia.gov/electricity/data/browser/,U.S. Energy Information Administration,,2019,,,,,,,6.04,U.S. Energy Information Administration,,,,,84.57,NO-ESTIMATION,NO-ESTIMATION,NO-ESTIMATION,NO-ESTIMATION,CAPACITY-FACTOR-V1,New Hampshire
Apple Blossom Wind Farm,USA0058690,100,43.815,-83.315,Wind,,,,2017,Apple Blossom Wind  LLC,U.S. Energy Information Administration,http://www.eia.gov/electricity/data/browser/,U.S. Energy Information Administration,,2019,,,,,43.704,169.373,265.032,U.S. Energy Information Administration,,,,,293.67,NO-ESTIMATION,NO-ESTIMATION,NO-ESTIMATION,NO-ESTIMATION,CAPACITY-FACTOR-V1,Michigan
Aragonne Wind LLC,USA0056336,90,34.8147,-105.0108,Wind,,,,2007,Leeward Asset Management  LLC,U.S. Energy Information Administration,http://www.eia.gov/electricity/data/browser/,U.S. Energy Information Administration,55100,2019,261.913,263.987,236.848,268.201,272.99,264.206,282.408,U.S. Energy Information Administration,297.93,278.12,244.33,272.84,283.04,WIND-V1,WIND-V1,WIND-V1,WIND-V1,WIND-V1,New Mexico
Arbor Hill Wind Farm,USA0062132,250,41.4042,-94.2614,Wind,,,,2019,MidAmerican Energy Co,U.S. Energy Information Administration,http://www.eia.gov/electricity/data/browser/,U.S. Energy Information Administration,,2019,,,,,,55.104,846.805,U.S. Energy Information Administration,,,,,734.18,NO-ESTIMATION,NO-ESTIMATION,NO-ESTIMATION,NO-ESTIMATION,CAPACITY-FACTOR-V1,Iowa
Arbuckle Mountain Wind Farm LLC,USA0059234,100,34.3869,-97.1369,Wind,,,,2015,Arbuckle Mountain Wind Farm LLC,U.S. Energy Information Administration,http://www.eia.gov/electricity/data/browser/,U.S. Energy Information Administration,,2019,,,69.405,405.655,411.644,398.72,410.707,U.S. Energy Information Administration,,,,361.81,342.09,NO-ESTIMATION,NO-ESTIMATION,NO-ESTIMATION,WIND-V1,WIND-V1,Oklahoma
Arkwright Summit Wind Farm LLC,USA0061673,79.8,42.4149,-79.2427,Wind,,,,2018,Arkwright Summit Wind Farm LLC,U.S. Energy Information Administration,http://www.eia.gov/electricity/data/browser/,U.S. Energy Information Administration,,2019,,,,,,86.252,256.397,U.S. Energy Information Administration,,,,,234.35,NO-ESTIMATION,NO-ESTIMATION,NO-ESTIMATION,NO-ESTIMATION,CAPACITY-FACTOR-V1,New York
Arlington Wind Power Project,USA0056855,103,45.7167,-120.2008,Wind,,,,2009,Arlington Wind Power Project LLC,U.S. Energy Information Administration,http://www.eia.gov/electricity/data/browser/,U.S. Energy Information Administration,,2019,220.081,224.945,183.762,201.811,183.153,221.498,189.718,U.S. Energy Information Administration,273.96,274.62,253.39,267.04,267.75,WIND-V1,WIND-V1,WIND-V1,WIND-V1,WIND-V1,Oregon
Armadillo Flats Wind Project  LLC,USA0061926,247.3,36.301,-97.567,Wind,,,,2019,Armadillo Flats Wind Project  LLC,U.S. Energy Information Administration,http://www.eia.gov/electricity/data/browser/,U.S. Energy Information Administration,,2019,,,,,,30.957,881.992,U.S. Energy Information Administration,,,,,726.25,NO-ESTIMATION,NO-ESTIMATION,NO-ESTIMATION,NO-ESTIMATION,CAPACITY-FACTOR-V1,Oklahoma
Armenia Mountain Wind Farm,USA0057044,100.5,41.7619,-76.8553,Wind,,,,2010,Allete Clean Energy,U.S. Energy Information Administration,http://www.eia.gov/electricity/data/browser/,U.S. Energy Information Administration,,2019,258.801,269.565,261.169,262.39,267.464,263.613,232.584,U.S. Energy Information Administration,319.98,278.12,319.56,323.41,307.89,WIND-V1,WIND-V1,WIND-V1,WIND-V1,WIND-V1,Pennsylvania
Ashtabula Wind Energy Center,USA0057032,48,47.1244,-97.8961,Wind,,,,2008,Otter Tail Power Co,U.S. Energy Information Administration,http://www.eia.gov/electricity/data/browser/,U.S. Energy Information Administration,58010,2019,147.319,169.562,150.954,159.794,161.449,151.822,139.342,U.S. Energy Information Administration,152.19,164.93,157.03,166.24,152.77,WIND-V1,WIND-V1,WIND-V1,WIND-V1,WIND-V1,North Dakota
Ashtabula Wind II LLC,USA0057121,120,47.2924,-97.9317,Wind,,,,2009,Ashtabula Wind II LLC,U.S. Energy Information Administration,http://www.eia.gov/electricity/data/browser/,U.S. Energy Information Administration,58010,2019,381.732,414.446,388.554,402.095,403.833,381.453,353.744,U.S. Energy Information Administration,382.76,397.5,397,416.31,405.36,WIND-V1,WIND-V1,WIND-V1,WIND-V1,WIND-V1,North Dakota
Ashtabula Wind III LLC,USA0057387,62.4,47.1242,-97.8956,Wind,,,,2011,Ashtabula Wind III LLC,U.S. Energy Information Administration,http://www.eia.gov/electricity/data/browser/,U.S. Energy Information Administration,58010,2019,205.497,228.55,216.766,217.168,226.965,213.682,198.904,U.S. Energy Information Administration,220.21,232.71,214.88,216.31,194.8,WIND-V1,WIND-V1,WIND-V1,WIND-V1,WIND-V1,North Dakota
Astra Wind Farm,USA0060856,163,34.7695,-102.0524,Wind,,,,2017,Astra Wind LLC,U.S. Energy Information Administration,http://www.eia.gov/electricity/data/browser/,U.S. Energy Information Administration,,2019,,,,,402.356,664.642,497.248,U.S. Energy Information Administration,,,,,478.68,NO-ESTIMATION,NO-ESTIMATION,NO-ESTIMATION,NO-ESTIMATION,CAPACITY-FACTOR-V1,Texas
August Wind Farm,USA0061644,1.8,40.7649,-94.4756,Wind,,,,2017,August Wind Energy  LLC,U.S. Energy Information Administration,http://www.eia.gov/electricity/data/browser/,U.S. Energy Information Administration,,2019,,,,,6.285,7.021,7.271,U.S. Energy Information Administration,,,,,5.28,NO-ESTIMATION,NO-ESTIMATION,NO-ESTIMATION,NO-ESTIMATION,CAPACITY-FACTOR-V1,Iowa
Aurora County Wind,USA0061745,20,43.719,-98.752,Wind,,,,2018,Consolidated Edison Development Inc.,U.S. Energy Information Administration,http://www.eia.gov/electricity/data/browser/,U.S. Energy Information Administration,,2019,,,,,,19.382,79.726,U.S. Energy Information Administration,,,,,58.73,NO-ESTIMATION,NO-ESTIMATION,NO-ESTIMATION,NO-ESTIMATION,CAPACITY-FACTOR-V1,South Dakota
Autumn Hills LLC,USA0055566,1.9,44.4131,-96.4325,Wind,,,,2001,CHI Operations Inc,U.S. Energy Information Administration,http://www.eia.gov/electricity/data/browser/,U.S. Energy Information Administration,,2019,5.135,6.204,5.597,5.297,5.053,3.848,3.231,U.S. Energy Information Administration,5.56,5.32,5.78,5.15,4.5,WIND-V1,WIND-V1,WIND-V1,WIND-V1,WIND-V1,Minnesota
B&K Energy Systems LLC,USA0056210,2,43.6514,-95.3755,Wind,,,,2004,Brewster,U.S. Energy Information Administration,http://www.eia.gov/electricity/data/browser/,U.S. Energy Information Administration,,2019,6.197,7.006,6.483,6.254,5.993,5.096,0.892,U.S. Energy Information Administration,6.55,5.55,6.09,5.61,5.51,WIND-V1,WIND-V1,WIND-V1,WIND-V1,WIND-V1,Minnesota
BC Energy LLC,USA0056624,4,43.6183,-95.4253,Wind,,,,2008,Ewington Wind Project,U.S. Energy Information Administration,http://www.eia.gov/electricity/data/browser/,U.S. Energy Information Administration,,2019,14.247,15.711,14.722,14.664,13.377,11.435,12.111,U.S. Energy Information Administration,13.29,12.3,11.15,13.18,13.21,WIND-V1,WIND-V1,WIND-V1,WIND-V1,WIND-V1,Minnesota
Baffin Wind,USA0057927,188,27.2231,-97.7892,Wind,,,,2015,Avangrid Renewables LLC,U.S. Energy Information Administration,http://www.eia.gov/electricity/data/browser/,U.S. Energy Information Administration,,2019,,,356.943,532.618,624.903,628.961,607.698,U.S. Energy Information Administration,,,,635.5,614.15,NO-ESTIMATION,NO-ESTIMATION,NO-ESTIMATION,WIND-V1,WIND-V1,Texas
Baldwin Wind LLC,USA0057347,102.4,47.1133,-100.7086,Wind,,,,2011,Baldwin Wind LLC,U.S. Energy Information Administration,http://www.eia.gov/electricity/data/browser/,U.S. Energy Information Administration,61743,2019,366.096,407.046,341.27,398.349,377.728,339.706,353.866,U.S. Energy Information Administration,369.61,382.27,350.15,367.88,369.49,WIND-V1,WIND-V1,WIND-V1,WIND-V1,WIND-V1,North Dakota
Balko Wind LLC,USA0058900,299.7,36.5181,-100.8472,Wind,,,,2015,Balko Wind LLC,U.S. Energy Information Administration,http://www.eia.gov/electricity/data/browser/,U.S. Energy Information Administration,67460,2019,,,437.627,1115.176,1050.678,1168.299,1101.259,U.S. Energy Information Administration,,,,1113.47,1138.81,NO-ESTIMATION,NO-ESTIMATION,NO-ESTIMATION,WIND-V1,WIND-V1,Oklahoma
Barton Chapel Wind Farm,USA0057156,120,33.068,-98.3377,Wind,,,,2009,Avangrid Renewables LLC,U.S. Energy Information Administration,http://www.eia.gov/electricity/data/browser/,U.S. Energy Information Administration,58738,2019,309.854,285.09,267.056,277.516,249.957,231.745,251.933,U.S. Energy Information Administration,338.66,345.98,329.26,335.11,326.87,WIND-V1,WIND-V1,WIND-V1,WIND-V1,WIND-V1,Texas
Barton Windpower LLC,USA0056765,160,43.393,-93.091,Wind,,,,2009,Avangrid Renewables LLC,U.S. Energy Information Administration,http://www.eia.gov/electricity/data/browser/,U.S. Energy Information Administration,59254,2019,359.715,373.991,378.181,401.272,421.045,373.953,383.554,U.S. Energy Information Administration,563.18,598.06,573.66,484.57,499.55,WIND-V1,WIND-V1,WIND-V1,WIND-V1,WIND-V1,Iowa
Bay Windpower I,USA0055944,1.8,45.7644,-84.7381,Wind,,,,2002,Bay Windpower LLC,U.S. Energy Information Administration,http://www.eia.gov/electricity/data/browser/,U.S. Energy Information Administration,,2019,2.496,2.406,2.538,2.4,2.423,2.183,2.48,U.S. Energy Information Administration,4.23,4.16,3.87,3.43,2.69,WIND-V1,WIND-V1,WIND-V1,WIND-V1,WIND-V1,Michigan
BayWa r.e Mozart LLC,USA0058048,30,32.9697,-100.5242,Wind,,,,2013,BayWa r.e Wind LLC,U.S. Energy Information Administration,http://www.eia.gov/electricity/data/browser/,U.S. Energy Information Administration,,2019,84.568,93.53,76.187,72.976,78.657,73.127,75.256,U.S. Energy Information Administration,,126.89,101.29,105.81,100.91,NO-ESTIMATION,WIND-V1,WIND-V1,WIND-V1,WIND-V1,Texas
Bayonne MUA- Leitner-Poma Wind Turbine,USA0059797,1.5,40.6528,-74.1178,Wind,,,,2012,SUEZ North America  Inc,U.S. Energy Information Administration,http://www.eia.gov/electricity/data/browser/,U.S. Energy Information Administration,,2019,,2.021,1.211,0.71,0.913,1.135,1.06,U.S. Energy Information Administration,3.91,3.83,3,3.25,3.54,WIND-V1,WIND-V1,WIND-V1,WIND-V1,WIND-V1,New Jersey
Bearkat,USA0059972,196.7,31.7272,-101.582,Wind,,,,2018,Bearkat Wind Energy 1  LLC,U.S. Energy Information Administration,http://www.eia.gov/electricity/data/browser/,U.S. Energy Information Administration,,2019,,,,,,727.476,753.769,U.S. Energy Information Administration,,,,,577.65,NO-ESTIMATION,NO-ESTIMATION,NO-ESTIMATION,NO-ESTIMATION,CAPACITY-FACTOR-V1,Texas
Beaver Creek Wind,USA0061079,340,42.107,-94.1646,Wind,,,,2018,MidAmerican Energy Co,U.S. Energy Information Administration,http://www.eia.gov/electricity/data/browser/,U.S. Energy Information Administration,,2019,,,,,41.394,647.988,1201.802,U.S. Energy Information Administration,,,,,998.48,NO-ESTIMATION,NO-ESTIMATION,NO-ESTIMATION,NO-ESTIMATION,CAPACITY-FACTOR-V1,Iowa
Beaver Ridge Wind,USA0057130,4.5,44.4967,-69.35,Wind,,,,2008,Beaver Ridge Wind LLC,U.S. Energy Information Administration,http://www.eia.gov/electricity/data/browser/,U.S. Energy Information Administration,64955,2019,11.08305,11.832,12.717,12.73,11.487,11.866,11.806,U.S. Energy Information Administration,13.4,15.01,13.22,14.57,14.3,WIND-V1,WIND-V1,WIND-V1,WIND-V1,WIND-V1,Maine
Beebe 1A,USA0058020,81.6,43.2569,-84.4997,Wind,,,,2013,Beebe Renewable Energy  LLC,U.S. Energy Information Administration,http://www.eia.gov/electricity/data/browser/,U.S. Energy Information Administration,,2019,199.706,205.37,229.944,220.12,228.12,213.432,222.408,U.S. Energy Information Administration,,294.5,280.27,251.71,248.59,NO-ESTIMATION,WIND-V1,WIND-V1,WIND-V1,WIND-V1,Michigan
Beebe 1B,USA0058908,50.4,43.2569,-84.4997,Wind,,,,2015,Beebe 1B Renewable Energy  LLC,U.S. Energy Information Administration,http://www.eia.gov/electricity/data/browser/,U.S. Energy Information Administration,,2019,,,148.329,144.759,147.261,138.78,144.63,U.S. Energy Information Administration,,,,176.81,172.66,NO-ESTIMATION,NO-ESTIMATION,NO-ESTIMATION,WIND-V1,WIND-V1,Michigan
Beech Ridge Energy LLC,USA0057151,100.5,38.0878,-80.4925,Wind,,,,2010,Invenergy Services LLC,U.S. Energy Information Administration,http://www.eia.gov/electricity/data/browser/,U.S. Energy Information Administration,54707,2019,226.031,283.747,276.044,274.621,279.778,279.635,230.745,U.S. Energy Information Administration,260.55,331.94,248.97,294.33,294.54,WIND-V1,WIND-V1,WIND-V1,WIND-V1,WIND-V1,West Virginia
Beethoven Wind,USA0059187,80,43.16,-98.08,Wind,,,,2015,NorthWestern Energy - (SD),U.S. Energy Information Administration,http://www.eia.gov/electricity/data/browser/,U.S. Energy Information Administration,68526,2019,,,177.114,327.112,313.372,290.804,283.638,U.S. Energy Information Administration,,,,344.05,306.86,NO-ESTIMATION,NO-ESTIMATION,NO-ESTIMATION,WIND-V1,WIND-V1,South Dakota
Bennett Creek Windfarm LLC - Mountain Home,USA0056637,21,43.0536,-115.4803,Wind,,,,2008,Bennett Creek Windfarm LLC,U.S. Energy Information Administration,http://www.eia.gov/electricity/data/browser/,U.S. Energy Information Administration,56881,2019,42.404,44.719,34.624,44.697,38.682,43.448,39.824,U.S. Energy Information Administration,64.03,60.37,55.68,59.04,63.19,WIND-V1,WIND-V1,WIND-V1,WIND-V1,WIND-V1,Idaho
Benson Creek Windfarm (Burnt River),USA0059491,10,44.3669,-117.3439,Wind,,,,2017,Benson Creek,U.S. Energy Information Administration,http://www.eia.gov/electricity/data/browser/,U.S. Energy Information Administration,,2019,,,,,23.67,30.914,28.425,U.S. Energy Information Administration,,,,,29.36,NO-ESTIMATION,NO-ESTIMATION,NO-ESTIMATION,NO-ESTIMATION,CAPACITY-FACTOR-V1,Oregon
Bent Tree Wind Farm Phase 1,USA0057198,201.3,43.7246,-93.4504,Wind,,,,2011,Wisconsin Power & Light Co,U.S. Energy Information Administration,http://www.eia.gov/electricity/data/browser/,U.S. Energy Information Administration,58316,2019,554.611,591.035,594.771,574.69,566.269,507.564,511.479,U.S. Energy Information Administration,793.9,759.31,699.84,634.65,624.26,WIND-V1,WIND-V1,WIND-V1,WIND-V1,WIND-V1,Minnesota
Benton County Wind Farm,USA0056679,130.5,40.695,-87.4886,Wind,,,,2008,Orion Energy Group LLC,U.S. Energy Information Administration,http://www.eia.gov/electricity/data/browser/,U.S. Energy Information Administration,,2019,266.976,178.015,265.567,247.125,326.239,323.195,301.6,U.S. Energy Information Administration,359.19,352.73,337.91,336.62,354.65,WIND-V1,WIND-V1,WIND-V1,WIND-V1,WIND-V1,Indiana
Berkshire Wind Power Project,USA0057721,19.6,42.5867,-73.275,Wind,,,,2012.877551,Massachusetts Mun Wholes Electric Co,U.S. Energy Information Administration,http://www.eia.gov/electricity/data/browser/,U.S. Energy Information Administration,53725,2019,51.7,51.207,48.91887,47.01708,48.94758,44.87076,37.859,U.S. Energy Information Administration,42.37,46.81,53.02,51.52,50.81,WIND-V1,WIND-V1,WIND-V1,WIND-V1,WIND-V1,Massachusetts
Bethel Wind Farm LLC,USA0060414,276,34.5753,-102.4747,Wind,,,,2017,Southern Power Co,U.S. Energy Information Administration,http://www.eia.gov/electricity/data/browser/,U.S. Energy Information Administration,,2019,,,,,1159.662,1250.071,1235.433,U.S. Energy Information Administration,,,,,810.53,NO-ESTIMATION,NO-ESTIMATION,NO-ESTIMATION,NO-ESTIMATION,CAPACITY-FACTOR-V1,Texas
Big Blue,USA0057289,36,43.6122,-94.1919,Wind,,,,2013,Big Blue Wind Farm LLC (MN),U.S. Energy Information Administration,http://www.eia.gov/electricity/data/browser/,U.S. Energy Information Administration,62806,2019,111.839,118.739,129.03133,127.057,120.625,115.319,104.836,U.S. Energy Information Administration,,151.93,152.37,130.08,123.5,NO-ESTIMATION,WIND-V1,WIND-V1,WIND-V1,WIND-V1,Minnesota
Big Horn Wind II,USA0057319,50,45.9192,-120.3039,Wind,,,,2011,Avangrid Renewables LLC,U.S. Energy Information Administration,http://www.eia.gov/electricity/data/browser/,U.S. Energy Information Administration,53870,2019,114.918,126.286,103.866,123.028,118.358,119.32,109.221,U.S. Energy Information Administration,145.62,141.4,138.56,137.84,134.66,WIND-V1,WIND-V1,WIND-V1,WIND-V1,WIND-V1,Washington
Big Horn Wind Project,USA0056361,199,45.8877,-120.2896,Wind,,,,2006,Avangrid Renewables LLC,U.S. Energy Information Administration,http://www.eia.gov/electricity/data/browser/,U.S. Energy Information Administration,53870,2019,503.416,517.272,431.826,502.92,468.061,510.765,446.663,U.S. Energy Information Administration,500.45,511.97,561.74,506.31,520.9,WIND-V1,WIND-V1,WIND-V1,WIND-V1,WIND-V1,Washington
Big Level Wind,USA0060551,90,41.8693,-77.6659,Wind,,,,2020,Big Level Wind LLC,U.S. Energy Information Administration,http://www.eia.gov/electricity/data/browser/,U.S. Energy Information Administration,,2019,,,,,,,10.356,U.S. Energy Information Administration,,,,,264.3,NO-ESTIMATION,NO-ESTIMATION,NO-ESTIMATION,NO-ESTIMATION,CAPACITY-FACTOR-V1,Pennsylvania
Big Sky Wind LLC,USA0057135,240,41.5992,-89.4561,Wind,,,,2011,RWE Renewables Americas LLC,U.S. Energy Information Administration,http://www.eia.gov/electricity/data/browser/,U.S. Energy Information Administration,55974,2019,529.709,537.021,530.591,522.333,575.917,499.26,527.269,U.S. Energy Information Administration,784.7,678.73,673.02,639.85,651.2,WIND-V1,WIND-V1,WIND-V1,WIND-V1,WIND-V1,Illinois
Big Spring Wind Power Facility,USA0054979,34.3,32.2075,-101.3883,Wind,,,,1999,Terra-Gen Operating Co-Wind,U.S. Energy Information Administration,http://www.eia.gov/electricity/data/browser/,U.S. Energy Information Administration,27535,2019,77.283,85.997,72.854,69.842,54.863,36.747,65.121,U.S. Energy Information Administration,98.17,87.62,75.16,74.84,69.1,WIND-V1,WIND-V1,WIND-V1,WIND-V1,WIND-V1,Texas
Big Timber Wind Farm,USA0061155,25,45.8554,-109.6492,Wind,,,,2018,Consolidated Edison Development Inc.,U.S. Energy Information Administration,http://www.eia.gov/electricity/data/browser/,U.S. Energy Information Administration,,2019,,,,,0,65.813,78.83,U.S. Energy Information Administration,,,,,73.41,NO-ESTIMATION,NO-ESTIMATION,NO-ESTIMATION,NO-ESTIMATION,CAPACITY-FACTOR-V1,Montana
Big Top LLC,USA0056968,1.7,45.655,-119.4647,Wind,,,,2009,Echo 3,U.S. Energy Information Administration,http://www.eia.gov/electricity/data/browser/,U.S. Energy Information Administration,,2019,3.763,3.881,3.453,3.899,3.047,4.127,3.276,U.S. Energy Information Administration,3.9,3.83,3.2,3.76,3.79,WIND-V1,WIND-V1,WIND-V1,WIND-V1,WIND-V1,Oregon
Big Turtle Wind Farm  LLC,USA0058891,49.4,43.8508,-82.7825,Wind,,,,2015.595142,Heritage Garden Wind Farm I LLC,U.S. Energy Information Administration,http://www.eia.gov/electricity/data/browser/,U.S. Energy Information Administration,67371,2019,,3.309,76.948,79.391,186.928,181.237,71.534,U.S. Energy Information Administration,,,,222.62,212.19,NO-ESTIMATION,NO-ESTIMATION,NO-ESTIMATION,WIND-V1,WIND-V1,Michigan
Biglow Canyon Wind Farm,USA0056485,449.7,45.6537,-120.6034,Wind,,,,2009.079164,Portland General Electric Co,U.S. Energy Information Administration,http://www.eia.gov/electricity/data/browser/,U.S. Energy Information Administration,54739,2019,1190.817,1142.486,1045.257,1058.132,894.881,1041.84,983.163,U.S. Energy Information Administration,1169.81,1124.75,1171.15,1174.45,1198.79,WIND-V1,WIND-V1,WIND-V1,WIND-V1,WIND-V1,Oregon
Bingham Wind,USA0057531,186,45.1033,-69.7619,Wind,,,,2017,Novatus Energy,U.S. Energy Information Administration,http://www.eia.gov/electricity/data/browser/,U.S. Energy Information Administration,,2019,,,,76.573,490.763,499.319,533.519,U.S. Energy Information Administration,,,,,546.23,NO-ESTIMATION,NO-ESTIMATION,NO-ESTIMATION,NO-ESTIMATION,CAPACITY-FACTOR-V1,Maine
Birch,USA0062172,1.8,40.7676,-94.4744,Wind,,,,2017,Birch Power LLC,U.S. Energy Information Administration,http://www.eia.gov/electricity/data/browser/,U.S. Energy Information Administration,,2019,,,,,,6.774,7.102,U.S. Energy Information Administration,,,,,5.28,NO-ESTIMATION,NO-ESTIMATION,NO-ESTIMATION,NO-ESTIMATION,CAPACITY-FACTOR-V1,Iowa
Bishop Hill Energy LLC,USA0057463,200,41.2153,-90.1208,Wind,,,,2012,SunEdison LLC,U.S. Energy Information Administration,http://www.eia.gov/electricity/data/browser/,U.S. Energy Information Administration,55557,2019,633.561,647.15,641.587,601.09,681.349,501.318,528.638,U.S. Energy Information Administration,670.1,649.43,608.44,614.05,581.98,WIND-V1,WIND-V1,WIND-V1,WIND-V1,WIND-V1,Illinois
Bishop Hill II Wind Farm,USA0058111,81,41.2325,-90.1742,Wind,,,,2012,Bishop Hill Energy II  LLC,U.S. Energy Information Administration,http://www.eia.gov/electricity/data/browser/,U.S. Energy Information Administration,64961,2019,270.399,300.267,289.684,282.278,305.001,258.238,279.842,U.S. Energy Information Administration,284.95,272.7,244.36,248.89,238.08,WIND-V1,WIND-V1,WIND-V1,WIND-V1,WIND-V1,Illinois
Bishop Hill III,USA0061787,119,41.2111,-90.276,Wind,,,,2018,Invenergy Services LLC,U.S. Energy Information Administration,http://www.eia.gov/electricity/data/browser/,U.S. Energy Information Administration,,2019,,,,,,223.713,425.038,U.S. Energy Information Administration,,,,,349.47,NO-ESTIMATION,NO-ESTIMATION,NO-ESTIMATION,NO-ESTIMATION,CAPACITY-FACTOR-V1,Illinois
Bison 2 Wind Energy Center,USA0057800,105,46.98,-101.5547,Wind,,,,2013,ALLETE  Inc.,U.S. Energy Information Administration,http://www.eia.gov/electricity/data/browser/,U.S. Energy Information Administration,59506,2019,272.699,324.088,294.291,328.831,328.922,276.225,284.922,U.S. Energy Information Administration,,431.65,418.45,380.17,378.75,NO-ESTIMATION,WIND-V1,WIND-V1,WIND-V1,WIND-V1,North Dakota
Bison 3 Wind Energy Center,USA0057801,105,46.98,-101.5547,Wind,,,,2013,ALLETE  Inc.,U.S. Energy Information Administration,http://www.eia.gov/electricity/data/browser/,U.S. Energy Information Administration,59506,2019,274.477,326.727,293.756,326.999,333.816,278.525,290.829,U.S. Energy Information Administration,,431.65,418.45,380.17,378.75,NO-ESTIMATION,WIND-V1,WIND-V1,WIND-V1,WIND-V1,North Dakota
Bison 4 Wind Energy Center,USA0058872,205,46.98,-101.5547,Wind,,,,2015,ALLETE  Inc.,U.S. Energy Information Administration,http://www.eia.gov/electricity/data/browser/,U.S. Energy Information Administration,59506,2019,,,712.056,832.159,840.92,712.649,750.939,U.S. Energy Information Administration,,,,819.63,843.46,NO-ESTIMATION,NO-ESTIMATION,NO-ESTIMATION,WIND-V1,WIND-V1,North Dakota
Bison I Wind Energy Center,USA0057038,81.8,46.98,-101.5547,Wind,,,,2011.550122,ALLETE  Inc.,U.S. Energy Information Administration,http://www.eia.gov/electricity/data/browser/,U.S. Energy Information Administration,59506,2019,232.623,269.839,239.495,268.839,271.815,228.732,244.356,U.S. Energy Information Administration,330.43,341.21,303.54,284.15,293.18,WIND-V1,WIND-V1,WIND-V1,WIND-V1,WIND-V1,North Dakota
Bisson Windfarm LLC,USA0056201,2,43.9844,-96.2194,Wind,,,,2003,Bisson Windfarm LLC,U.S. Energy Information Administration,http://www.eia.gov/electricity/data/browser/,U.S. Energy Information Administration,,2019,6.127,7.013,6.346,0.385,2.917,4.019,5.002,U.S. Energy Information Administration,6.26,5.62,6.31,5.25,5.68,WIND-V1,WIND-V1,WIND-V1,WIND-V1,WIND-V1,Minnesota
Black Oak Wind Farm,USA0058692,78,45.6608,-95.0128,Wind,,,,2017,Black Oak Wind  LLC,U.S. Energy Information Administration,http://www.eia.gov/electricity/data/browser/,U.S. Energy Information Administration,62805,2019,,,,25.032,307.553,282.022,287.496,U.S. Energy Information Administration,,,,,229.06,NO-ESTIMATION,NO-ESTIMATION,NO-ESTIMATION,NO-ESTIMATION,CAPACITY-FACTOR-V1,Minnesota
Blackstone Wind Farm II LLC,USA0057113,200,41.1406,-88.53,Wind,,,,2010,Blackstone Wind Farm II LLC,U.S. Energy Information Administration,http://www.eia.gov/electricity/data/browser/,U.S. Energy Information Administration,,2019,486.612,529.552,526.247,489.941,530.829,475.666,498.034,U.S. Energy Information Administration,605.26,600.26,586.37,570.93,562.36,WIND-V1,WIND-V1,WIND-V1,WIND-V1,WIND-V1,Illinois
Blackstone Wind Farm LLC,USA0057110,102,41.1508,-88.6233,Wind,,,,2009,Blackstone Wind Farm LLC,U.S. Energy Information Administration,http://www.eia.gov/electricity/data/browser/,U.S. Energy Information Administration,,2019,254.569,272.134,286.211,263.021,280.271,248.383,274.348,U.S. Energy Information Administration,302.08,297.4,295.41,291.31,286.79,WIND-V1,WIND-V1,WIND-V1,WIND-V1,WIND-V1,Illinois
Block Island Wind Farm,USA0058035,30,41.1147,-71.5211,Wind,,,,2017,Deepwater Wind Block Island LLC,U.S. Energy Information Administration,http://www.eia.gov/electricity/data/browser/,U.S. Energy Information Administration,58789,2019,,,,6.313,104.351,117.362,117.792,U.S. Energy Information Administration,,,,,88.1,NO-ESTIMATION,NO-ESTIMATION,NO-ESTIMATION,NO-ESTIMATION,CAPACITY-FACTOR-V1,Rhode Island
Blue Breezes II LLC,USA0056581,1.3,43.6558,-94.1564,Wind,,,,2006,Moore 1,U.S. Energy Information Administration,http://www.eia.gov/electricity/data/browser/,U.S. Energy Information Administration,62639,2019,2.997,3.72,3.414,3.286,3.18,2.705,3.013,U.S. Energy Information Administration,2.77,2.73,3.14,2.92,2.93,WIND-V1,WIND-V1,WIND-V1,WIND-V1,WIND-V1,Minnesota
Blue Breezes LLC,USA0056580,1.3,43.6558,-94.1536,Wind,,,,2006,Moore 1,U.S. Energy Information Administration,http://www.eia.gov/electricity/data/browser/,U.S. Energy Information Administration,62639,2019,3.402,3.436,3.34,3.216,3.154,2.737,2.708,U.S. Energy Information Administration,2.77,2.73,3.14,2.92,2.93,WIND-V1,WIND-V1,WIND-V1,WIND-V1,WIND-V1,Minnesota
Blue Canyon Windpower,USA0056081,74.3,34.8508,-98.5773,Wind,,,,2004,Blue Canyon Windpower LLC,U.S. Energy Information Administration,http://www.eia.gov/electricity/data/browser/,U.S. Energy Information Administration,50725,2019,261.998,272.342,236.371,254.212,247.587,231.372,231.1,U.S. Energy Information Administration,279.08,253.65,256.66,253.69,235.72,WIND-V1,WIND-V1,WIND-V1,WIND-V1,WIND-V1,Oklahoma
Blue Canyon Windpower II,USA0056335,151,34.8661,-98.6056,Wind,,,,2006,Blue Canyon Windpower II LLC,U.S. Energy Information Administration,http://www.eia.gov/electricity/data/browser/,U.S. Energy Information Administration,50725,2019,532.394,545.294,497.693,529.086,530.465,495.517,464.318,U.S. Energy Information Administration,516.91,498.93,439.52,454.17,492.48,WIND-V1,WIND-V1,WIND-V1,WIND-V1,WIND-V1,Oklahoma
Blue Canyon Windpower V LLC,USA0057108,99,34.8217,-98.4525,Wind,,,,2009,Blue Canyon Windpower V LLC,U.S. Energy Information Administration,http://www.eia.gov/electricity/data/browser/,U.S. Energy Information Administration,50725,2019,376.474,393.186,339.255,365.241,371.057,362.235,363.36,U.S. Energy Information Administration,374.15,338.22,291.4,330.38,319.2,WIND-V1,WIND-V1,WIND-V1,WIND-V1,WIND-V1,Oklahoma
Blue Canyon Windpower VI LLC,USA0057616,100,34.9104,-98.5599,Wind,,,,2012,Blue Canyon Windpower VI LLC,U.S. Energy Information Administration,http://www.eia.gov/electricity/data/browser/,U.S. Energy Information Administration,50725,2019,402.493,424.776,379.7,409.65,383.248,378.775,384.937,U.S. Energy Information Administration,387.7,392.44,319.8,369.56,349.48,WIND-V1,WIND-V1,WIND-V1,WIND-V1,WIND-V1,Oklahoma
Blue Cloud Wind Energy LLC,USA0060270,148.4,34.0382,-102.6652,Wind,,,,2019,RWE Renewables Americas LLC,U.S. Energy Information Administration,http://www.eia.gov/electricity/data/browser/,U.S. Energy Information Administration,,2019,,,,,,35.818,599.487,U.S. Energy Information Administration,,,,,435.81,NO-ESTIMATION,NO-ESTIMATION,NO-ESTIMATION,NO-ESTIMATION,CAPACITY-FACTOR-V1,Texas
Blue Creek Wind Project,USA0057449,302,40.9315,-84.5618,Wind,,,,2012,Avangrid Renewables LLC,U.S. Energy Information Administration,http://www.eia.gov/electricity/data/browser/,U.S. Energy Information Administration,60946,2019,821.816,766.489,809.329,810.707,829.176,743.015,781.432,U.S. Energy Information Administration,1000.35,987.57,844.82,893.4,839.33,WIND-V1,WIND-V1,WIND-V1,WIND-V1,WIND-V1,Ohio
Blue Sky Green Field Wind Project,USA0056391,145.2,43.8794,-88.2708,Wind,,,,2008,Wisconsin Electric Power Co,U.S. Energy Information Administration,http://www.eia.gov/electricity/data/browser/,U.S. Energy Information Administration,39993,2019,338.73,350.944,364.816,333.469,342.453,301.738,321.615,U.S. Energy Information Administration,476.07,463.88,476.53,438.57,493.46,WIND-V1,WIND-V1,WIND-V1,WIND-V1,WIND-V1,Wisconsin
Blue Summit II Wind  LLC,USA0061970,99.4,34.2259,-99.478,Wind,,,,2019,Blue Summit II Wind  LLC,U.S. Energy Information Administration,http://www.eia.gov/electricity/data/browser/,U.S. Energy Information Administration,,2019,,,,,,,369.33,U.S. Energy Information Administration,,,,,291.91,NO-ESTIMATION,NO-ESTIMATION,NO-ESTIMATION,NO-ESTIMATION,CAPACITY-FACTOR-V1,Texas
Blue Summit III Wind,USA0062566,200.2,34.1705,-99.5634,Wind,,,,2020,Blue Summit III Wind  LLC,U.S. Energy Information Administration,http://www.eia.gov/electricity/data/browser/,U.S. Energy Information Administration,,2019,,,,,,,35.954,U.S. Energy Information Administration,,,,,587.93,NO-ESTIMATION,NO-ESTIMATION,NO-ESTIMATION,NO-ESTIMATION,CAPACITY-FACTOR-V1,Texas
Blue Summit Wind LLC,USA0058372,135.4,34.29,-99.3647,Wind,,,,2013,Blue Summit Wind LLC,U.S. Energy Information Administration,http://www.eia.gov/electricity/data/browser/,U.S. Energy Information Administration,66236,2019,447.896,488.467,435.835,455.74,473.694,456.482,432.929,U.S. Energy Information Administration,,532.58,458.12,471.01,414.2,NO-ESTIMATION,WIND-V1,WIND-V1,WIND-V1,WIND-V1,Texas
Bluegrass Ridge,USA0056555,56.7,40.1006,-94.4869,Wind,,,,2007,Wind Capital Holdings  LLC,U.S. Energy Information Administration,http://www.eia.gov/electricity/data/browser/,U.S. Energy Information Administration,55398,2019,133.752,132.924,123.562,121.05,125.957,114.043,118.433,U.S. Energy Information Administration,166.42,162.03,156.85,160.31,155.98,WIND-V1,WIND-V1,WIND-V1,WIND-V1,WIND-V1,Missouri
Bluestem,USA0060256,198,36.5522,-100.5876,Wind,,,,2017,Bluestem Wind Energy  LLC,U.S. Energy Information Administration,http://www.eia.gov/electricity/data/browser/,U.S. Energy Information Administration,69956,2019,,,,13.474,794.183,837.775,814.186,U.S. Energy Information Administration,,,,,581.47,NO-ESTIMATION,NO-ESTIMATION,NO-ESTIMATION,NO-ESTIMATION,CAPACITY-FACTOR-V1,Oklahoma
Bluff Point Wind Facility,USA0061303,119.7,40.319,-84.9769,Wind,,,,2018,Bluff Point Wind  LLC,U.S. Energy Information Administration,http://www.eia.gov/electricity/data/browser/,U.S. Energy Information Administration,,2019,,,,,41.606,370.967,388.251,U.S. Energy Information Administration,,,,,351.52,NO-ESTIMATION,NO-ESTIMATION,NO-ESTIMATION,NO-ESTIMATION,CAPACITY-FACTOR-V1,Indiana
Bobcat Bluff Wind Project LLC,USA0057974,161,33.4931,-98.5819,Wind,,,,2013,EDF Renewable Asset Holdings  Inc.,U.S. Energy Information Administration,http://www.eia.gov/electricity/data/browser/,U.S. Energy Information Administration,65706,2019,445.866,471.302,385.552,393.846,370.551,353.665,401.513,U.S. Energy Information Administration,,529.23,497.2,457.55,426.95,NO-ESTIMATION,WIND-V1,WIND-V1,WIND-V1,WIND-V1,Texas
Boeve Windfarm LLC,USA0056209,2,44.05,-96.0933,Wind,,,,2003,Boeve Windfarm LLC,U.S. Energy Information Administration,http://www.eia.gov/electricity/data/browser/,U.S. Energy Information Administration,,2019,6.505,7.171,4.23,5.494,6.509,5.373,5.21,U.S. Energy Information Administration,6.04,5.62,5.8,5.56,4.95,WIND-V1,WIND-V1,WIND-V1,WIND-V1,WIND-V1,Minnesota
Border Winds Wind Farm,USA0059200,150,48.9647,-99.6139,Wind,,,,2015,Northern States Power Co - Minnesota,U.S. Energy Information Administration,http://www.eia.gov/electricity/data/browser/,U.S. Energy Information Administration,62471,2019,,,102.109,622.257,641.863,609.517,612.374,U.S. Energy Information Administration,,,,582.06,571.95,NO-ESTIMATION,NO-ESTIMATION,NO-ESTIMATION,WIND-V1,WIND-V1,North Dakota
Bowling Green Wind,USA0056226,7.2,41.3786,-83.7383,Wind,,,,2003.75,American Mun Power-Ohio  Inc,U.S. Energy Information Administration,http://www.eia.gov/electricity/data/browser/,U.S. Energy Information Administration,13121,2019,14.433,14.262,13.086,10.892,12.075,11.214,11.231,U.S. Energy Information Administration,16.77,15.64,16.05,16.39,15.25,WIND-V1,WIND-V1,WIND-V1,WIND-V1,WIND-V1,Ohio
Brady II Wind Energy Center,USA0060354,150,46.6115,-102.7882,Wind,,,,2017,Brady Wind II  LLC,U.S. Energy Information Administration,http://www.eia.gov/electricity/data/browser/,U.S. Energy Information Administration,70459,2019,,,,18.567,656.04,620.345,642.203,U.S. Energy Information Administration,,,,,440.5,NO-ESTIMATION,NO-ESTIMATION,NO-ESTIMATION,NO-ESTIMATION,CAPACITY-FACTOR-V1,North Dakota
Brady Wind Energy Center,USA0060355,150,46.6465,-102.7651,Wind,,,,2016,Brady Wind  LLC,U.S. Energy Information Administration,http://www.eia.gov/electricity/data/browser/,U.S. Energy Information Administration,69305,2019,,,,94.87,682.951,628.594,651.123,U.S. Energy Information Administration,,,,,638.18,NO-ESTIMATION,NO-ESTIMATION,NO-ESTIMATION,NO-ESTIMATION,WIND-V1,North Dakota
Brazos Wind Farm,USA0056111,160,32.9479,-101.1478,Wind,,,,2004,Shell Wind Energy Inc.,U.S. Energy Information Administration,http://www.eia.gov/electricity/data/browser/,U.S. Energy Information Administration,,2019,501.171,498.645,408.936,461.962,365.814,358.773,390.042,U.S. Energy Information Administration,498.17,477.23,475.36,471.89,432.84,WIND-V1,WIND-V1,WIND-V1,WIND-V1,WIND-V1,Texas
Breckinridge Wind Project LLC,USA0058994,98.8,36.4769,-97.6856,Wind,,,,2015,NextEra Energy Resources Breckinridge,U.S. Energy Information Administration,http://www.eia.gov/electricity/data/browser/,U.S. Energy Information Administration,68018,2019,,,161.892,449.761,440.227,425.361,402.784,U.S. Energy Information Administration,,,,404.71,392.21,NO-ESTIMATION,NO-ESTIMATION,NO-ESTIMATION,WIND-V1,WIND-V1,Oklahoma
Bright Stalk Wind Farm I,USA0057623,205.2,40.7012,-88.7011,Wind,,,,2020,Lexington Chenoa Wind Farm LLC,U.S. Energy Information Administration,http://www.eia.gov/electricity/data/browser/,U.S. Energy Information Administration,,2019,,,,,,,36.692,U.S. Energy Information Administration,,,,,602.61,NO-ESTIMATION,NO-ESTIMATION,NO-ESTIMATION,NO-ESTIMATION,CAPACITY-FACTOR-V1,Illinois
Briscoe Wind Farm,USA0059734,150,34.4323,-101.2372,Wind,,,,2015,Capital Dynamics,U.S. Energy Information Administration,http://www.eia.gov/electricity/data/browser/,U.S. Energy Information Administration,,2019,,,122.286,480.691,415.372,488.209,366.85,U.S. Energy Information Administration,,,,560.64,578.37,NO-ESTIMATION,NO-ESTIMATION,NO-ESTIMATION,WIND-V1,WIND-V1,Texas
Brisket Wind (8) LLC,USA0056838,10,36.0075,-101.8614,Wind,,,,2008,GlidePath Power Operations LLC,U.S. Energy Information Administration,http://www.eia.gov/electricity/data/browser/,U.S. Energy Information Administration,62648,2019,28.908,30.508,26.781,29.856,29.265,23.749,20.826,U.S. Energy Information Administration,31.56,29.18,24.63,30.56,29.3,WIND-V1,WIND-V1,WIND-V1,WIND-V1,WIND-V1,Texas
Broadview Energy JN  LLC,USA0060145,181.7,34.7342,-103.108,Wind,,,,2017,Pattern Operators LP,U.S. Energy Information Administration,http://www.eia.gov/electricity/data/browser/,U.S. Energy Information Administration,,2019,,,,,427.901,730.156,690.977,U.S. Energy Information Administration,,,,,533.6,NO-ESTIMATION,NO-ESTIMATION,NO-ESTIMATION,NO-ESTIMATION,CAPACITY-FACTOR-V1,New Mexico
Broadview Energy KW  LLC,USA0060152,142.6,34.727,-103.1668,Wind,,,,2017,Pattern Operators LP,U.S. Energy Information Administration,http://www.eia.gov/electricity/data/browser/,U.S. Energy Information Administration,,2019,,,,,316.48,582.445,552.354,U.S. Energy Information Administration,,,,,418.77,NO-ESTIMATION,NO-ESTIMATION,NO-ESTIMATION,NO-ESTIMATION,CAPACITY-FACTOR-V1,New Mexico
Broadview Energy Prime 2 LLC,USA0058465,9.9,34.7281,-103.305,Wind,,,,2014,BayWa r.e Wind LLC,U.S. Energy Information Administration,http://www.eia.gov/electricity/data/browser/,U.S. Energy Information Administration,,2019,,36.373,35.045,38.823,39.602,39.144,37.961,U.S. Energy Information Administration,,,35.63,36.03,35.24,NO-ESTIMATION,NO-ESTIMATION,WIND-V1,WIND-V1,WIND-V1,New Mexico
Broadview Energy Prime LLC,USA0058464,9.9,34.7469,-103.325,Wind,,,,2014,BayWa r.e Wind LLC,U.S. Energy Information Administration,http://www.eia.gov/electricity/data/browser/,U.S. Energy Information Administration,,2019,,34.956,34.158,38.695,38.43,39.144,38.17,U.S. Energy Information Administration,,,35.63,36.03,35.24,NO-ESTIMATION,NO-ESTIMATION,WIND-V1,WIND-V1,WIND-V1,New Mexico
Broken Bow Wind II  LLC,USA0058981,73.1,41.3239,-99.3231,Wind,,,,2014,Consolidated Edison Development Inc.,U.S. Energy Information Administration,http://www.eia.gov/electricity/data/browser/,U.S. Energy Information Administration,67402,2019,,97.862,326.409,333.041,306.17,301.749,293.375,U.S. Energy Information Administration,,,329.4,318.38,281.81,NO-ESTIMATION,NO-ESTIMATION,WIND-V1,WIND-V1,WIND-V1,Nebraska
Broken Bow Wind LLC,USA0057593,79.9,41.4547,-99.5681,Wind,,,,2013,NRG Energy Gas & Wind Holdings Inc,U.S. Energy Information Administration,http://www.eia.gov/electricity/data/browser/,U.S. Energy Information Administration,60417,2019,310.983,324.563,302.129,312.276,289.989,294.494,277.163,U.S. Energy Information Administration,,341.39,352.64,323.19,299.39,NO-ESTIMATION,WIND-V1,WIND-V1,WIND-V1,WIND-V1,Nebraska
Brookfield,USA0058719,74.8,43.7578,-83.2978,Wind,,,,2014,DTE Electric Company,U.S. Energy Information Administration,http://www.eia.gov/electricity/data/browser/,U.S. Energy Information Administration,68348,2019,,185.187,265.849,260.607,169.918,251.116,255.051,U.S. Energy Information Administration,,307.7,308.18,275.71,262.62,NO-ESTIMATION,WIND-V1,WIND-V1,WIND-V1,WIND-V1,Michigan
Brookfield Tehachapi 1,USA0057962,102,35.0083,-118.2414,Wind,,,,2012,Consolidated Edison Development Inc.,U.S. Energy Information Administration,http://www.eia.gov/electricity/data/browser/,U.S. Energy Information Administration,,2019,277.666,280.834,237.35,286.428,254.831,275.149,246.957,U.S. Energy Information Administration,327.77,313.31,292.82,278.73,290.15,WIND-V1,WIND-V1,WIND-V1,WIND-V1,WIND-V1,California
Brown County Wind Turbine,USA0057767,1.5,39.9733,-90.6992,Wind,,,,2011,Adams Electric Cooperative,U.S. Energy Information Administration,http://www.eia.gov/electricity/data/browser/,U.S. Energy Information Administration,62652,2019,0.003,3.415,3.223,2.983,3.468,3.05,3.12,U.S. Energy Information Administration,4.56,4.31,3.93,3.81,3.77,WIND-V1,WIND-V1,WIND-V1,WIND-V1,WIND-V1,Illinois
Bruennings Breeze Wind Farm,USA0059066,228,26.5222,-97.6911,Wind,,,,2018,RWE Renewables Americas LLC,U.S. Energy Information Administration,http://www.eia.gov/electricity/data/browser/,U.S. Energy Information Administration,,2019,,,,,43.581,686.008,667.942,U.S. Energy Information Administration,,,,,669.57,NO-ESTIMATION,NO-ESTIMATION,NO-ESTIMATION,NO-ESTIMATION,CAPACITY-FACTOR-V1,Texas
Brule County Wind,USA0061746,20,43.717,-98.922,Wind,,,,2018,Consolidated Edison Development Inc.,U.S. Energy Information Administration,http://www.eia.gov/electricity/data/browser/,U.S. Energy Information Administration,,2019,,,,,,20.616,77.395,U.S. Energy Information Administration,,,,,58.73,NO-ESTIMATION,NO-ESTIMATION,NO-ESTIMATION,NO-ESTIMATION,CAPACITY-FACTOR-V1,South Dakota
Buckeye Wind Energy Center,USA0058767,205.7,39.0039,-99.4142,Wind,,,,2015,Invenergy Services LLC,U.S. Energy Information Administration,http://www.eia.gov/electricity/data/browser/,U.S. Energy Information Administration,,2019,,,278.87,820.019,793.989,759.01,806.882,U.S. Energy Information Administration,,,,771.91,761.94,NO-ESTIMATION,NO-ESTIMATION,NO-ESTIMATION,WIND-V1,WIND-V1,Kansas
Buckthorn Wind Project,USA0060983,100.5,32.3713,-98.3774,Wind,,,,2018,Buckthorn Wind Project  LLC,U.S. Energy Information Administration,http://www.eia.gov/electricity/data/browser/,U.S. Energy Information Administration,,2019,,,,,25.811,363.913,408.566,U.S. Energy Information Administration,,,,,295.14,NO-ESTIMATION,NO-ESTIMATION,NO-ESTIMATION,NO-ESTIMATION,CAPACITY-FACTOR-V1,Texas
Buena Vista Energy LLC,USA0056446,38,37.805,-121.6672,Wind,,,,2007,Leeward Asset Management  LLC,U.S. Energy Information Administration,http://www.eia.gov/electricity/data/browser/,U.S. Energy Information Administration,55840,2019,102.827,91.212,102.998,94.98,86.416,98.294,87.875,U.S. Energy Information Administration,108.23,101.48,98.78,110.52,103.79,WIND-V1,WIND-V1,WIND-V1,WIND-V1,WIND-V1,California
Buffalo Bear LLC,USA0056946,18.9,36.7767,-99.6353,Wind,,,,2009,NRG Energy Gas & Wind Holdings Inc,U.S. Energy Information Administration,http://www.eia.gov/electricity/data/browser/,U.S. Energy Information Administration,58724,2019,63.982,63.311,57.205,60.798,61.223,57.582,65.489,U.S. Energy Information Administration,62.62,63.39,54.1,61.97,61.74,WIND-V1,WIND-V1,WIND-V1,WIND-V1,WIND-V1,Oklahoma
Buffalo Center Wind LLC,USA0058038,1.5,43.3858,-92.7594,Wind,,,,2011,Buffalo Center Wind LLC,U.S. Energy Information Administration,http://www.eia.gov/electricity/data/browser/,U.S. Energy Information Administration,,2019,6.44,6.59,6.561,6.149,5.999,5.455,5.103,U.S. Energy Information Administration,5.65,6.27,4.89,5.06,5.02,WIND-V1,WIND-V1,WIND-V1,WIND-V1,WIND-V1,Iowa
Buffalo Dunes Wind Project,USA0058474,249.8,37.6208,-101.0761,Wind,,,,2014,Buffalo Dunes Wind Project LLC,U.S. Energy Information Administration,http://www.eia.gov/electricity/data/browser/,U.S. Energy Information Administration,65546,2019,0,817.092,897.21,919.201,813.922,918.166,875.92172,U.S. Energy Information Administration,,,969.83,935.74,846.94,NO-ESTIMATION,NO-ESTIMATION,WIND-V1,WIND-V1,WIND-V1,Kansas
Buffalo Gap 2 Wind Farm,USA0056484,232.5,32.3182,-100.177,Wind,,,,2007,AES Wind Generation Inc,U.S. Energy Information Administration,http://www.eia.gov/electricity/data/browser/,U.S. Energy Information Administration,54048,2019,680.246,705.214,595.982,673.377,650.578,623.62,609.08,U.S. Energy Information Administration,712.6,674.56,628.1,707.82,716.12,WIND-V1,WIND-V1,WIND-V1,WIND-V1,WIND-V1,Texas
Buffalo Gap 3 Wind Farm,USA0056638,170.2,32.2878,-100.1,Wind,,,,2008,AES Wind Generation Inc,U.S. Energy Information Administration,http://www.eia.gov/electricity/data/browser/,U.S. Energy Information Administration,54048,2019,489.721,512.171,422.084,464.68,473.993,485.413,469.951,U.S. Energy Information Administration,544.42,512.92,447.16,498,503.22,WIND-V1,WIND-V1,WIND-V1,WIND-V1,WIND-V1,Texas
Buffalo Gap Wind Farm,USA0056240,120.6,32.3116,-100.0616,Wind,,,,2006,AES Wind Generation Inc,U.S. Energy Information Administration,http://www.eia.gov/electricity/data/browser/,U.S. Energy Information Administration,54048,2019,374.189,385.083,324.844,349.474,361.998,353.033,358.357,U.S. Energy Information Administration,364.25,358.33,333.79,355.38,407.01,WIND-V1,WIND-V1,WIND-V1,WIND-V1,WIND-V1,Texas
Buffalo Mountain,USA0007927,1.8,36.121,-84.3387,Wind,,,,2000,Tennessee Valley Authority,U.S. Energy Information Administration,http://www.eia.gov/electricity/data/browser/,U.S. Energy Information Administration,46140,2019,0,0,0,0,0,0,0,U.S. Energy Information Administration,2.37,1.88,2.04,1.73,1.27,WIND-V1,WIND-V1,WIND-V1,WIND-V1,WIND-V1,Tennessee
Buffalo Mountain Energy Center,USA0056493,27,36.1271,-84.3442,Wind,,,,2005,Invenergy Services LLC,U.S. Energy Information Administration,http://www.eia.gov/electricity/data/browser/,U.S. Energy Information Administration,,2019,46.745,51.14,45.841,37.747,43.327,41.009,37.976,U.S. Energy Information Administration,45.1,46.81,42.42,57.95,52.8,WIND-V1,WIND-V1,WIND-V1,WIND-V1,WIND-V1,Tennessee
Buffalo Ridge I LLC,USA0056792,50.4,44.4328,-96.4779,Wind,,,,2009,Avangrid Renewables LLC,U.S. Energy Information Administration,http://www.eia.gov/electricity/data/browser/,U.S. Energy Information Administration,,2019,138.481,143.635,149.764,158.762,147.796,149.655,141.037,U.S. Energy Information Administration,178.72,176.78,152.27,163.03,171.79,WIND-V1,WIND-V1,WIND-V1,WIND-V1,WIND-V1,South Dakota
Buffalo Ridge II LLC,USA0057424,210,44.5281,-96.6267,Wind,,,,2011,Avangrid Renewables LLC,U.S. Energy Information Administration,http://www.eia.gov/electricity/data/browser/,U.S. Energy Information Administration,58682,2019,586.819,614.452,589.209,622.243,614.322,591.156,514.318,U.S. Energy Information Administration,792.92,778.63,694.4,723.44,712.49,WIND-V1,WIND-V1,WIND-V1,WIND-V1,WIND-V1,South Dakota
Bull Creek Wind,USA0056956,180,32.929,-101.5786,Wind,,,,2009,Bull Creek Wind LLC,U.S. Energy Information Administration,http://www.eia.gov/electricity/data/browser/,U.S. Energy Information Administration,57216,2019,374.521,441.71,335.826,343.443,338.761,349.442,133.022,U.S. Energy Information Administration,614.18,567.32,480.6,464.51,532.66,WIND-V1,WIND-V1,WIND-V1,WIND-V1,WIND-V1,Texas
Bull Hill Wind Project,USA0057083,34.5,44.7231,-68.2425,Wind,,,,2012,First Wind O&M  LLC,U.S. Energy Information Administration,http://www.eia.gov/electricity/data/browser/,U.S. Energy Information Administration,63402,2019,106.923,117.098,115.845,110.643,106.827,107.475,115.172,U.S. Energy Information Administration,106.59,107.5,94.32,97.37,98.2,WIND-V1,WIND-V1,WIND-V1,WIND-V1,WIND-V1,Maine
Bulldog,USA0057632,1.5,41.2258,-94.4406,Wind,,,,2010,Bulldog Wind Energy  LLC,U.S. Energy Information Administration,http://www.eia.gov/electricity/data/browser/,U.S. Energy Information Administration,65479,2019,6.05583,5.838,5.682,5.747,5.95,5.677,5.504,U.S. Energy Information Administration,5.59,5.24,4.33,5.08,4.99,WIND-V1,WIND-V1,WIND-V1,WIND-V1,WIND-V1,Iowa
Burley Butte Windpark,USA0056434,21.3,42.4903,-113.9266,Wind,,,,2011,Idaho Wind Partners 1 LLC,U.S. Energy Information Administration,http://www.eia.gov/electricity/data/browser/,U.S. Energy Information Administration,61852,2019,57.909,61.263,51.242,56.379,48.173,61.297,56.106,U.S. Energy Information Administration,69.3,61.99,57.47,64.55,61.23,WIND-V1,WIND-V1,WIND-V1,WIND-V1,WIND-V1,Idaho
Busch Ranch II Wind Farm,USA0062445,59.4,37.7664,-104.4295,Wind,,,,2019,Black Hills Electric Generation LLC,U.S. Energy Information Administration,http://www.eia.gov/electricity/data/browser/,U.S. Energy Information Administration,,2019,,,,,,,24.222,U.S. Energy Information Administration,,,,,174.44,NO-ESTIMATION,NO-ESTIMATION,NO-ESTIMATION,NO-ESTIMATION,CAPACITY-FACTOR-V1,Colorado
Busch Ranch Wind Energy Farm,USA0057980,29,37.8011,-104.4919,Wind,,,,2012,Black Hills Colorado Electric  LLC,U.S. Energy Information Administration,http://www.eia.gov/electricity/data/browser/,U.S. Energy Information Administration,63362,2019,91.329,96.637,82.087,95.452,89.947,93.615,90.567,U.S. Energy Information Administration,100.5,100.53,85.17,91.14,88.52,WIND-V1,WIND-V1,WIND-V1,WIND-V1,WIND-V1,Colorado
Butler Ridge,USA0056647,54,43.4003,-88.4811,Wind,,,,2009,Butler Ridge Wind Energy Center,U.S. Energy Information Administration,http://www.eia.gov/electricity/data/browser/,U.S. Energy Information Administration,51412,2019,152.238,156.777,105.371,144.624,149.651,130.998,144.165,U.S. Energy Information Administration,171.17,183.4,160.57,154.45,157.66,WIND-V1,WIND-V1,WIND-V1,WIND-V1,WIND-V1,Wisconsin
Butter Creek Power LLC,USA0056967,5,45.7017,-119.4222,Wind,,,,2009,Echo 3,U.S. Energy Information Administration,http://www.eia.gov/electricity/data/browser/,U.S. Energy Information Administration,,2019,13.494,13.209,11.564,11.626,10.267,13.533,11.293,U.S. Energy Information Administration,12.82,11.86,10.34,11.93,11.7,WIND-V1,WIND-V1,WIND-V1,WIND-V1,WIND-V1,Oregon
CCC Hastings Wind Turbine,USA0060931,1.7,40.57,-98.334,Wind,,,,2017,CCC Hastings Renewable Energy  LLC,U.S. Energy Information Administration,http://www.eia.gov/electricity/data/browser/,U.S. Energy Information Administration,,2019,,,,0.143,7.589,7.284,7.315,U.S. Energy Information Administration,,,,,4.99,NO-ESTIMATION,NO-ESTIMATION,NO-ESTIMATION,NO-ESTIMATION,CAPACITY-FACTOR-V1,Nebraska
CG Windfarm LLC,USA0056200,2,43.9931,-96.2186,Wind,,,,2004,CG Windfarm LLC,U.S. Energy Information Administration,http://www.eia.gov/electricity/data/browser/,U.S. Energy Information Administration,,2019,4.703,6.723,2.657,0,1.479,2.297,2.25,U.S. Energy Information Administration,6.8,5.56,5.87,5.37,6.04,WIND-V1,WIND-V1,WIND-V1,WIND-V1,WIND-V1,Minnesota
CP Bloom Wind LLC,USA0059888,178.2,37.4863,-99.9247,Wind,,,,2017,Capital Power Corporation,U.S. Energy Information Administration,http://www.eia.gov/electricity/data/browser/,U.S. Energy Information Administration,,2019,,,,,380.705,711.351,717.146,U.S. Energy Information Administration,,,,,523.32,NO-ESTIMATION,NO-ESTIMATION,NO-ESTIMATION,NO-ESTIMATION,CAPACITY-FACTOR-V1,Kansas
CTV Power Purchase Contract Trust,USA0054300,4.6,35.0583,-118.3083,Wind,,,,2003.608696,Brookfield Renewable Trading and Marketing LP,U.S. Energy Information Administration,http://www.eia.gov/electricity/data/browser/,U.S. Energy Information Administration,61939,2019,10.22,10.849,10.14,10.62,9.945,11.812,11.048,U.S. Energy Information Administration,12.14,9.94,14.53,11.07,8.64,WIND-V1,WIND-V1,WIND-V1,WIND-V1,WIND-V1,California
Cabazon Wind Partners,USA0056011,41,33.9172,-116.735,Wind,,,,2002,Shell Wind Energy Inc.,U.S. Energy Information Administration,http://www.eia.gov/electricity/data/browser/,U.S. Energy Information Administration,,2019,111.22,109.662,104.409,116.855,116.575,113.364,111.678,U.S. Energy Information Administration,159.28,133,110.59,112.85,101.51,WIND-V1,WIND-V1,WIND-V1,WIND-V1,WIND-V1,California
Cactus Flats Wind Energy Project,USA0061001,148.4,31.1125,-100.0281,Wind,,,,2018,Southern Power Co,U.S. Energy Information Administration,http://www.eia.gov/electricity/data/browser/,U.S. Energy Information Administration,,2019,,,,,,201.594,517.719,U.S. Energy Information Administration,,,,,435.81,NO-ESTIMATION,NO-ESTIMATION,NO-ESTIMATION,NO-ESTIMATION,CAPACITY-FACTOR-V1,Texas
California Ridge Wind Energy LLC,USA0058008,217,40.2117,-87.8783,Wind,,,,2013,SunEdison LLC,U.S. Energy Information Administration,http://www.eia.gov/electricity/data/browser/,U.S. Energy Information Administration,63723,2019,731.934,790.858,746.062,732.885,837.478,738.697,766.403,U.S. Energy Information Administration,,752.35,752.66,685.46,669.36,NO-ESTIMATION,WIND-V1,WIND-V1,WIND-V1,WIND-V1,Illinois
Callahan Divide Wind Energy Center,USA0056270,114,32.3039,-100.0217,Wind,,,,2005,FPL Energy Callahan Wind  LLC,U.S. Energy Information Administration,http://www.eia.gov/electricity/data/browser/,U.S. Energy Information Administration,53561,2019,376.851,404.579,334.957,361.902,368.607,422.634,426.623,U.S. Energy Information Administration,334.79,339.54,300.41,347.91,320.48,WIND-V1,WIND-V1,WIND-V1,WIND-V1,WIND-V1,Texas
Camelot Wind LLC,USA0058958,1.5,41.9253,-70.64,Wind,,,,2012,Camelot Wind LLC,U.S. Energy Information Administration,http://www.eia.gov/electricity/data/browser/,U.S. Energy Information Administration,,2019,2.699,3.003,2.961,3.083,2.833,2.664,2.741,U.S. Energy Information Administration,4.3,4.41,3.82,4.1,3.77,WIND-V1,WIND-V1,WIND-V1,WIND-V1,WIND-V1,Massachusetts
Cameron Ridge LLC,USA0010586,59.6,35.075,-118.3158,Wind,,,,1985,Terra-Gen Operating Co-Wind,U.S. Energy Information Administration,http://www.eia.gov/electricity/data/browser/,U.S. Energy Information Administration,45208,2019,162.659,176.326,152.363,173.868,167.738,151.385,153.82,U.S. Energy Information Administration,145.06,138,149.4,155,151.03,WIND-V1,WIND-V1,WIND-V1,WIND-V1,WIND-V1,California
Cameron Wind 1 LLC,USA0059118,165,26.1953,-97.4661,Wind,,,,2016,Cameron Wind 1 LLC,U.S. Energy Information Administration,http://www.eia.gov/electricity/data/browser/,U.S. Energy Information Administration,67677,2019,,,35.743,498.952,508.068,517.993,500.49,U.S. Energy Information Administration,,,,,606.9,NO-ESTIMATION,NO-ESTIMATION,NO-ESTIMATION,NO-ESTIMATION,WIND-V1,Texas
Camp Grove Wind Farm,USA0056640,150,41.0906,-89.6398,Wind,,,,2008,Orion Energy Group LLC,U.S. Energy Information Administration,http://www.eia.gov/electricity/data/browser/,U.S. Energy Information Administration,57501,2019,355.841,419.04,441.606,405.676,414.277,386.099,429.371,U.S. Energy Information Administration,438.75,438.78,414.29,435.25,433.54,WIND-V1,WIND-V1,WIND-V1,WIND-V1,WIND-V1,Illinois
Camp Reed,USA0057125,22.5,42.8119,-115.0489,Wind,,,,2011,Idaho Wind Partners 1 LLC,U.S. Energy Information Administration,http://www.eia.gov/electricity/data/browser/,U.S. Energy Information Administration,65975,2019,63.157,66.813,52.909,69.005,61.237,66.824,65.322,U.S. Energy Information Administration,67.49,66.49,62.67,71.15,66.09,WIND-V1,WIND-V1,WIND-V1,WIND-V1,WIND-V1,Idaho
Campbell County Wind Farm,USA0059655,97.8,45.7533,-100.275,Wind,,,,2016,Consolidated Edison Development Inc.,U.S. Energy Information Administration,http://www.eia.gov/electricity/data/browser/,U.S. Energy Information Administration,67435,2019,,,1.161,408.631,403.835,371.261,380.777,U.S. Energy Information Administration,,,,,395.03,NO-ESTIMATION,NO-ESTIMATION,NO-ESTIMATION,NO-ESTIMATION,WIND-V1,South Dakota
Campbell Hill Windpower,USA0057090,99,43.0145,-105.999,Wind,,,,2010,Duke Energy DEGS Campbell Hill,U.S. Energy Information Administration,http://www.eia.gov/electricity/data/browser/,U.S. Energy Information Administration,58708,2019,337.581,331.374,293.519,332.386,311.59,308.503,323.963,U.S. Energy Information Administration,404.05,374.85,324.44,341.22,335.95,WIND-V1,WIND-V1,WIND-V1,WIND-V1,WIND-V1,Wyoming
Canadian Breaks  LLC,USA0063030,210.1,35.2002,-102.3155,Wind,,,,2020,RWE Renewables Americas LLC,U.S. Energy Information Administration,http://www.eia.gov/electricity/data/browser/,U.S. Energy Information Administration,,2019,,,,,,,34.126,U.S. Energy Information Administration,,,,,617,NO-ESTIMATION,NO-ESTIMATION,NO-ESTIMATION,NO-ESTIMATION,CAPACITY-FACTOR-V1,Texas
Canadian Hills Wind,USA0057987,298.5,35.6297,-98.0247,Wind,,,,2013,Canadian Hills Wind LLC,U.S. Energy Information Administration,http://www.eia.gov/electricity/data/browser/,U.S. Energy Information Administration,63949,2019,1100.423,1097.176,935.418,1113.969,1043.337,1015.943,1041.785,U.S. Energy Information Administration,,1146.82,1016.32,1050.36,1072.34,NO-ESTIMATION,WIND-V1,WIND-V1,WIND-V1,WIND-V1,Oklahoma
Caney River Wind Project,USA0057858,200,37.46,-96.42,Wind,,,,2011,Caney River Wind Project,U.S. Energy Information Administration,http://www.eia.gov/electricity/data/browser/,U.S. Energy Information Administration,60044,2019,732.626,744.546,686.086,696.326,736.597,637.983,656.59253,U.S. Energy Information Administration,778.88,786.79,630.13,665.36,622.26,WIND-V1,WIND-V1,WIND-V1,WIND-V1,WIND-V1,Kansas
Canton Mountain Wind,USA0058620,22.8,44.5147,-70.3031,Wind,,,,2017,Canton Mountain Wind LLC,U.S. Energy Information Administration,http://www.eia.gov/electricity/data/browser/,U.S. Energy Information Administration,,2019,,,,,10.597,57.424,56.925,U.S. Energy Information Administration,,,,,77.93,NO-ESTIMATION,NO-ESTIMATION,NO-ESTIMATION,NO-ESTIMATION,WIND-V1,Maine
Cape Cod Air Force Station - 6 SWS,USA0058661,3.4,41.7525,-70.5389,Wind,,,,2014,US Air Force,U.S. Energy Information Administration,http://www.eia.gov/electricity/data/browser/,U.S. Energy Information Administration,,2019,,7.834,8.322,8.99,9.235,7.996,6.315,U.S. Energy Information Administration,,,11.28,11.65,11.1,NO-ESTIMATION,NO-ESTIMATION,WIND-V1,WIND-V1,WIND-V1,Massachusetts
Capricorn Ridge Wind LLC,USA0056763,662.5,31.952,-101.0189,Wind,,,,2007.450566,Capricorn Ridge Wind LLC,U.S. Energy Information Administration,http://www.eia.gov/electricity/data/browser/,U.S. Energy Information Administration,57161,2019,1983.817,2066.584,1659.524,1829.154,1821.192,2183.532,2237.527,U.S. Energy Information Administration,2319.01,2024.83,1774.13,1965.66,1975.02,WIND-V1,WIND-V1,WIND-V1,WIND-V1,WIND-V1,Texas
Caprock Wind Farm,USA0056293,80,34.9806,-103.3539,Wind,,,,2005,Leeward Asset Management  LLC,U.S. Energy Information Administration,http://www.eia.gov/electricity/data/browser/,U.S. Energy Information Administration,49783,2019,320.829,316.68,296.624,324.918,317.735,330.326,320.798,U.S. Energy Information Administration,237.5,260.31,231.45,251.44,237.59,WIND-V1,WIND-V1,WIND-V1,WIND-V1,WIND-V1,New Mexico
Carousel Wind Farm LLC,USA0059975,150,39.334,-102.173,Wind,,,,2015,Carousel Wind Farm  LLC,U.S. Energy Information Administration,http://www.eia.gov/electricity/data/browser/,U.S. Energy Information Administration,67998,2019,,,73.7,579.696,649.012,654.325,610.661,U.S. Energy Information Administration,,,,557.71,515.71,NO-ESTIMATION,NO-ESTIMATION,NO-ESTIMATION,WIND-V1,WIND-V1,Colorado
Carroll Area Wind Farm,USA0059071,20.7,41.9414,-94.8861,Wind,,,,2015,SRIV Partnership LLC,U.S. Energy Information Administration,http://www.eia.gov/electricity/data/browser/,U.S. Energy Information Administration,67721,2019,,,76.495,91.593,88.296,76.961,76.086,U.S. Energy Information Administration,,,,84.98,84.55,NO-ESTIMATION,NO-ESTIMATION,NO-ESTIMATION,WIND-V1,WIND-V1,Iowa
Carroll Wind Farm,USA0056809,159.1,42.1622,-94.93,Wind,,,,2009,MidAmerican Energy Co,U.S. Energy Information Administration,http://www.eia.gov/electricity/data/browser/,U.S. Energy Information Administration,60536,2019,533.811,517.495,507.127,515.448,491.02,434.528,402.551,U.S. Energy Information Administration,528.49,528.1,481.03,526.27,508.85,WIND-V1,WIND-V1,WIND-V1,WIND-V1,WIND-V1,Iowa
Carstensen Wind,USA0056410,1.7,44.0247,-96.4369,Wind,,,,2005,Carstensen Wind LLC,U.S. Energy Information Administration,http://www.eia.gov/electricity/data/browser/,U.S. Energy Information Administration,,2019,4.834,5.665,5.318,5.234,4.795,4.53,3.581,U.S. Energy Information Administration,5.54,4.79,4.99,5.13,4.79,WIND-V1,WIND-V1,WIND-V1,WIND-V1,WIND-V1,Minnesota
Cashton Greens Wind Farm,USA0057968,5,43.7339,-90.805,Wind,,,,2012,Cashton Greens Wind Farm LLC,U.S. Energy Information Administration,http://www.eia.gov/electricity/data/browser/,U.S. Energy Information Administration,64191,2019,10.957,12.038,11.195,11.563,11.418,9.411,10.057,U.S. Energy Information Administration,16.1,17.18,16.84,11.61,12.89,WIND-V1,WIND-V1,WIND-V1,WIND-V1,WIND-V1,Wisconsin
Casper Wind Farm,USA0057093,17,42.8847,-106.2214,Wind,,,,2010,Chevron USA,U.S. Energy Information Administration,http://www.eia.gov/electricity/data/browser/,U.S. Energy Information Administration,60421,2019,43.971,42.376,37.035,42.051,41.131,30.221,11.095,U.S. Energy Information Administration,62.59,57.76,49.55,48.78,53.5,WIND-V1,WIND-V1,WIND-V1,WIND-V1,WIND-V1,Wyoming
Casselman Wind Power Project,USA0056369,34.5,39.85,-79.138,Wind,,,,2008,Avangrid Renewables LLC,U.S. Energy Information Administration,http://www.eia.gov/electricity/data/browser/,U.S. Energy Information Administration,56664,2019,94.308,97.984,90.934,90.562,96.763,97.027,89.458,U.S. Energy Information Administration,113.91,110.82,102.05,107.1,111.27,WIND-V1,WIND-V1,WIND-V1,WIND-V1,WIND-V1,Pennsylvania
Cassia Gulch,USA0056935,18.9,42.8744,-115.0172,Wind,,,,2009,Cassia Gulch Wind Park  LLC,U.S. Energy Information Administration,http://www.eia.gov/electricity/data/browser/,U.S. Energy Information Administration,,2019,43.378,45.077,35.488,43.19,38.814,43.082,40.035,U.S. Energy Information Administration,55.91,57.85,51.81,52.89,54,WIND-V1,WIND-V1,WIND-V1,WIND-V1,WIND-V1,Idaho
Cassia Wind,USA0056934,10.5,42.8444,-115.0369,Wind,,,,2009,Cassia Wind Farm  LLC,U.S. Energy Information Administration,http://www.eia.gov/electricity/data/browser/,U.S. Energy Information Administration,62633,2019,24.827,26.647,20.562,24.506,22.11,24.869,18.646,U.S. Energy Information Administration,28.94,31.89,29.13,29.44,29.76,WIND-V1,WIND-V1,WIND-V1,WIND-V1,WIND-V1,Idaho
Cedar Bluff Wind  LLC,USA0060069,198.6,38.6976,-99.7293,Wind,,,,2016,Cedar Bluff Wind  LLC,U.S. Energy Information Administration,http://www.eia.gov/electricity/data/browser/,U.S. Energy Information Administration,68805,2019,,,69.296,814.638,812.798,769.12,826.36,U.S. Energy Information Administration,,,,,779.95,NO-ESTIMATION,NO-ESTIMATION,NO-ESTIMATION,NO-ESTIMATION,WIND-V1,Kansas
Cedar Creek II,USA0057210,248.3,40.9475,-103.7839,Wind,,,,2011,AE Power Services LLC,U.S. Energy Information Administration,http://www.eia.gov/electricity/data/browser/,U.S. Energy Information Administration,61702,2019,811.375,758.709,654.254,751.628,713.395,713.611,661.089,U.S. Energy Information Administration,837.5,823.46,721.58,727.15,699.37,WIND-V1,WIND-V1,WIND-V1,WIND-V1,WIND-V1,Colorado
Cedar Creek Wind,USA0056371,300.5,40.8944,-104.0206,Wind,,,,2007,Leeward Asset Management  LLC,U.S. Energy Information Administration,http://www.eia.gov/electricity/data/browser/,U.S. Energy Information Administration,55284,2019,879.922,842.744,744.451,852.867,794.301,813.126,707.748,U.S. Energy Information Administration,812.51,846.34,798.03,847.22,796.66,WIND-V1,WIND-V1,WIND-V1,WIND-V1,WIND-V1,Colorado
Cedar Hills Wind Farm,USA0057171,19.5,46.2456,-103.7672,Wind,,,,2010,Montana-Dakota Utilities Co,U.S. Energy Information Administration,http://www.eia.gov/electricity/data/browser/,U.S. Energy Information Administration,59080,2019,54.805,59.42,57.147,60.79,59.276,49.771,51.692,U.S. Energy Information Administration,78.6,65.33,62.13,59.95,60.69,WIND-V1,WIND-V1,WIND-V1,WIND-V1,WIND-V1,North Dakota
Cedar Point Wind,USA0057315,252,39.4218,-103.6781,Wind,,,,2011,Cedar Point LLC,U.S. Energy Information Administration,http://www.eia.gov/electricity/data/browser/,U.S. Energy Information Administration,61495,2019,757.472,764.234,645.035,661.318,743.686,726.656,589.976,U.S. Energy Information Administration,932.09,734.26,691.57,704.02,688.04,WIND-V1,WIND-V1,WIND-V1,WIND-V1,WIND-V1,Colorado
Cedar Ridge,USA0056347,67.7,43.6926,-88.3297,Wind,,,,2009,Wisconsin Power & Light Co,U.S. Energy Information Administration,http://www.eia.gov/electricity/data/browser/,U.S. Energy Information Administration,54781,2019,181.366,176.921,193.496,177.225,173.78,163.498,176.428,U.S. Energy Information Administration,218.44,210.31,218.09,202.27,219.62,WIND-V1,WIND-V1,WIND-V1,WIND-V1,WIND-V1,Wisconsin
Cedro Hill Wind LLC,USA0057260,150,27.5761,-98.9053,Wind,,,,2011,NRG Energy Gas & Wind Holdings Inc,U.S. Energy Information Administration,http://www.eia.gov/electricity/data/browser/,U.S. Energy Information Administration,61124,2019,514.184,519.889,475.295,486.736,510.426,497.683,489.489,U.S. Energy Information Administration,496.07,455.62,417.24,444.55,439.62,WIND-V1,WIND-V1,WIND-V1,WIND-V1,WIND-V1,Texas
Centennial Wind Farm,USA0056380,120,36.6377,-99.6019,Wind,,,,2007,Oklahoma Gas & Electric Co,U.S. Energy Information Administration,http://www.eia.gov/electricity/data/browser/,U.S. Energy Information Administration,55634,2019,388.053,379.362,318.46,336.352,245.186,281.431,263.119,U.S. Energy Information Administration,394.8,401.88,354.94,390.88,375.68,WIND-V1,WIND-V1,WIND-V1,WIND-V1,WIND-V1,Oklahoma
Central Plains Wind Farm,USA0056818,99,38.5032,-101.1615,Wind,,,,2009,Evergy Kansas Central  Inc,U.S. Energy Information Administration,http://www.eia.gov/electricity/data/browser/,U.S. Energy Information Administration,50748,2019,299.05,293.767,275.377,276.422,274.815,276.9,236.922,U.S. Energy Information Administration,357.11,367.52,325.7,307.98,298.11,WIND-V1,WIND-V1,WIND-V1,WIND-V1,WIND-V1,Kansas
Century,USA0056252,201.2,42.5644,-93.6369,Wind,,,,2005.763419,MidAmerican Energy Co,U.S. Energy Information Administration,http://www.eia.gov/electricity/data/browser/,U.S. Energy Information Administration,53859,2019,565.559,589.084,510.234,436.707,408.278,529.756,536.289,U.S. Energy Information Administration,656.59,666.48,591.72,546.37,630.85,WIND-V1,WIND-V1,WIND-V1,WIND-V1,WIND-V1,Iowa
Chamberlain Wind Project,USA0007974,2.6,43.8485,-99.2476,Wind,,,,2001,Basin Electric Power Coop,U.S. Energy Information Administration,http://www.eia.gov/electricity/data/browser/,U.S. Energy Information Administration,,2019,4.743,3.99,2.895,5.157,3.286,1.208,1.566,U.S. Energy Information Administration,6.64,6.42,6.59,5.91,5.71,WIND-V1,WIND-V1,WIND-V1,WIND-V1,WIND-V1,South Dakota
Champepaden Wind Power,USA0055980,2,43.8997,-95.9506,Wind,,,,2002,EDF Renewable Asset Holdings  Inc.,U.S. Energy Information Administration,http://www.eia.gov/electricity/data/browser/,U.S. Energy Information Administration,,2019,5.656,6.229,6.058,5.993,5.536,5.062,3.708,U.S. Energy Information Administration,6.16,5.53,5.93,5.9,4.99,WIND-V1,WIND-V1,WIND-V1,WIND-V1,WIND-V1,Minnesota
Champion Wind Farm LLC,USA0056592,126.5,32.3983,-100.6481,Wind,,,,2008,RWE Renewables Americas LLC,U.S. Energy Information Administration,http://www.eia.gov/electricity/data/browser/,U.S. Energy Information Administration,63212,2019,393.195,406.486,349.128,308.25,366.144,377.206,364.32,U.S. Energy Information Administration,436.86,407.08,352.66,373.53,377.26,WIND-V1,WIND-V1,WIND-V1,WIND-V1,WIND-V1,Texas
Chanarambie Power Partners  LLC,USA0056142,85.5,44.011,-96.0446,Wind,,,,2004,Allete Clean Energy,U.S. Energy Information Administration,http://www.eia.gov/electricity/data/browser/,U.S. Energy Information Administration,47822,2019,222.029,220.214,222.8,232.289,228.713,211.623,201.508,U.S. Energy Information Administration,293.62,250.24,278.26,261.52,240.95,WIND-V1,WIND-V1,WIND-V1,WIND-V1,WIND-V1,Minnesota
Chapman Ranch Wind I,USA0059193,236,27.5925,-97.5008,Wind,,,,2017,Chapman Ranch Wind LLC,U.S. Energy Information Administration,http://www.eia.gov/electricity/data/browser/,U.S. Energy Information Administration,,2019,,,,,160.208,599.127,417.739,U.S. Energy Information Administration,,,,,693.06,NO-ESTIMATION,NO-ESTIMATION,NO-ESTIMATION,NO-ESTIMATION,CAPACITY-FACTOR-V1,Texas
Charles City Wind Farm,USA0056677,80,43.0003,-92.62,Wind,,,,2008,MidAmerican Energy Co,U.S. Energy Information Administration,http://www.eia.gov/electricity/data/browser/,U.S. Energy Information Administration,58380,2019,233.922,240.82,230.23187,211.333,216.311,206.113,236.902,U.S. Energy Information Administration,257.51,250.85,219.76,234.53,222.28,WIND-V1,WIND-V1,WIND-V1,WIND-V1,WIND-V1,Iowa
Charlestown Wind Turbine,USA0058065,1.5,42.3914,-71.0708,Wind,,,,2011,MWRA Charlestown,U.S. Energy Information Administration,http://www.eia.gov/electricity/data/browser/,U.S. Energy Information Administration,64911,2019,2.498,2.125,1.778,1.933,2.202,1.264,1.508,U.S. Energy Information Administration,4.01,3.55,3.06,3.28,3.4,WIND-V1,WIND-V1,WIND-V1,WIND-V1,WIND-V1,Massachusetts
Chestnut Flats Wind Farm,USA0057268,38,40.5228,-78.4769,Wind,,,,2012,EDF Renewable Asset Holdings  Inc.,U.S. Energy Information Administration,http://www.eia.gov/electricity/data/browser/,U.S. Energy Information Administration,59805,2019,104.419,111.301,102.089,106.34,103.231,87.357,86.293,U.S. Energy Information Administration,136.06,130.15,96.83,130.2,123.66,WIND-V1,WIND-V1,WIND-V1,WIND-V1,WIND-V1,Pennsylvania
Chisholm View Wind Project,USA0058041,300,36.5747,-97.6736,Wind,,,,2013.864,Chisholm View Wind Project,U.S. Energy Information Administration,http://www.eia.gov/electricity/data/browser/,U.S. Energy Information Administration,61645,2019,828.782,883.103,789.7,832.574,1028.922,1028.165,940.23593,U.S. Energy Information Administration,,1098.52,985.59,1146.91,1021.33,NO-ESTIMATION,WIND-V1,WIND-V1,WIND-V1,WIND-V1,Oklahoma
Chopin Wind LLC,USA0059076,10,45.88,-118.4633,Wind,,,,2016,BayWa r.e Wind LLC,U.S. Energy Information Administration,http://www.eia.gov/electricity/data/browser/,U.S. Energy Information Administration,,2019,,,,9.671,26.128,31.245,25.282,U.S. Energy Information Administration,,,,,30.51,NO-ESTIMATION,NO-ESTIMATION,NO-ESTIMATION,NO-ESTIMATION,WIND-V1,Oregon
Cimarron Bend Wind Project I  LLC,USA0060687,200,37.355,-99.991,Wind,,,,2017,Cimarron Bend Wind Project I  LLC,U.S. Energy Information Administration,http://www.eia.gov/electricity/data/browser/,U.S. Energy Information Administration,70254,2019,,,,0,796.118,787.258,870.34672,U.S. Energy Information Administration,,,,,587.34,NO-ESTIMATION,NO-ESTIMATION,NO-ESTIMATION,NO-ESTIMATION,CAPACITY-FACTOR-V1,Kansas
Cimarron Bend Wind Project II  LLC,USA0060688,200,37.355,-99.991,Wind,,,,2017,Cimarron Bend Wind Project II  LLC,U.S. Energy Information Administration,http://www.eia.gov/electricity/data/browser/,U.S. Energy Information Administration,,2019,,,,,727.592,877.905,888.07557,U.S. Energy Information Administration,,,,,587.34,NO-ESTIMATION,NO-ESTIMATION,NO-ESTIMATION,NO-ESTIMATION,CAPACITY-FACTOR-V1,Kansas
Cimarron Wind Energy LLC,USA0057762,165.6,37.8739,-100.2803,Wind,,,,2012,Cimarron Wind Energy LLC,U.S. Energy Information Administration,http://www.eia.gov/electricity/data/browser/,U.S. Energy Information Administration,61193,2019,550.57,719.895,699.248,702.412,695.643,653.134,652.121,U.S. Energy Information Administration,705.34,713.34,602.27,630.28,613.84,WIND-V1,WIND-V1,WIND-V1,WIND-V1,WIND-V1,Kansas
Cimarron Windpower II,USA0057663,131,37.9013,-100.372,Wind,,,,2012,Cimarron Windpower II  LLC,U.S. Energy Information Administration,http://www.eia.gov/electricity/data/browser/,U.S. Energy Information Administration,63813,2019,503.441,570,549.733,568.086,553.819,550.09,534.182,U.S. Energy Information Administration,501.29,521.19,486.44,482.98,465.82,WIND-V1,WIND-V1,WIND-V1,WIND-V1,WIND-V1,Kansas
Cirrus Wind 1 LLC,USA0058162,61.2,33.0331,-101.6875,Wind,,,,2013,Cirrus Wind 1 LLC,U.S. Energy Information Administration,http://www.eia.gov/electricity/data/browser/,U.S. Energy Information Administration,,2019,121.167,144.766,127.937,129.875,105.95,112,93.44,U.S. Energy Information Administration,,248.99,207.46,186.38,220.31,NO-ESTIMATION,WIND-V1,WIND-V1,WIND-V1,WIND-V1,Texas
Cisco,USA0063431,8.4,43.6256,-95.3725,Wind,,,,2008,Allete Clean Energy,U.S. Energy Information Administration,http://www.eia.gov/electricity/data/browser/,U.S. Energy Information Administration,,2019,,,,,,,17.583,U.S. Energy Information Administration,26.03,22.4,21.71,26.03,26.1,WIND-V1,WIND-V1,WIND-V1,WIND-V1,WIND-V1,Minnesota
City of Soledad Water Reclamation,USA0059329,1,36.4211,-121.3403,Wind,,,,2014,Foundation CA Fund VII Manager  LLC,U.S. Energy Information Administration,http://www.eia.gov/electricity/data/browser/,U.S. Energy Information Administration,68084,2019,,0.33957,2.932,4.291,3.15,4.127,4.314,U.S. Energy Information Administration,,,2.07,4.22,3.01,NO-ESTIMATION,NO-ESTIMATION,WIND-V1,WIND-V1,WIND-V1,California
Cloud County Wind Farm,USA0056784,201,39.4375,-97.6644,Wind,,,,2009,Cloud County Windfarm  LLC,U.S. Energy Information Administration,http://www.eia.gov/electricity/data/browser/,U.S. Energy Information Administration,,2019,628.885,651.906,574.616,579.953,610.894,568.456,547.94,U.S. Energy Information Administration,706.97,695.26,586.66,592.54,555.42,WIND-V1,WIND-V1,WIND-V1,WIND-V1,WIND-V1,Kansas
Coastal Energy Project,USA0057756,6,46.7936,-124.0654,Wind,,,,2010,Coastal Community Action Program,U.S. Energy Information Administration,http://www.eia.gov/electricity/data/browser/,U.S. Energy Information Administration,,2019,11.914,16.27,12.866,14.164,,12.921,11.878,U.S. Energy Information Administration,13.84,14.14,14.76,14.41,13.84,WIND-V1,WIND-V1,WIND-V1,WIND-V1,WIND-V1,Washington
Cohocton Wind Project,USA0056634,87.5,42.45,-77.52,Wind,,,,2009,First Wind O&M  LLC,U.S. Energy Information Administration,http://www.eia.gov/electricity/data/browser/,U.S. Energy Information Administration,,2019,169.541,181.942,184.354,182.377,187.133,171.356,135.139,U.S. Energy Information Administration,249.46,246.52,217.77,237.84,234.73,WIND-V1,WIND-V1,WIND-V1,WIND-V1,WIND-V1,New York
Colbeck's Corner  LLC,USA0059068,200,35.2542,-101.1866,Wind,,,,2016,RWE Renewables Americas LLC,U.S. Energy Information Administration,http://www.eia.gov/electricity/data/browser/,U.S. Energy Information Administration,68271,2019,,,,558.408,838.357,884.986,843.756,U.S. Energy Information Administration,,,,,834.33,NO-ESTIMATION,NO-ESTIMATION,NO-ESTIMATION,NO-ESTIMATION,WIND-V1,Texas
Cold Springs Windfarm,USA0057431,23,43.0281,-115.4005,Wind,,,,2013,Aegis Renewables LLC,U.S. Energy Information Administration,http://www.eia.gov/electricity/data/browser/,U.S. Energy Information Administration,69090,2019,48.986,53.793,44.365,53.616,46.579,47.798,50.137,U.S. Energy Information Administration,,73.73,72.53,65.89,65.61,NO-ESTIMATION,WIND-V1,WIND-V1,WIND-V1,WIND-V1,Idaho
Colorado Green Holdings LLC,USA0056173,162,37.7033,-102.6231,Wind,,,,2004,Avangrid Renewables LLC,U.S. Energy Information Administration,http://www.eia.gov/electricity/data/browser/,U.S. Energy Information Administration,47739,2019,440.549,400.799,377.632,506.052,219.729,305.678,416.148,U.S. Energy Information Administration,493.5,516.02,500.05,498.5,425.34,WIND-V1,WIND-V1,WIND-V1,WIND-V1,WIND-V1,Colorado
Colorado Highlands Wind,USA0057174,96.1,40.7569,-102.7431,Wind,,,,2013,Colorado Highlands Wind LLC,U.S. Energy Information Administration,http://www.eia.gov/electricity/data/browser/,U.S. Energy Information Administration,65234,2019,294.546,365.098,340.424,378.519,358.972,368.03,346.432,U.S. Energy Information Administration,,406.1,336.65,365.48,281.37,NO-ESTIMATION,WIND-V1,WIND-V1,WIND-V1,WIND-V1,Colorado
Com Adam 1WF-1,USA0058887,5,41.6603,-89.2497,Wind,,,,2007,FPC Services Inc.,U.S. Energy Information Administration,http://www.eia.gov/electricity/data/browser/,U.S. Energy Information Administration,,2019,13.953,15.283,15.009,12.112,10.856,13.28976,8.69814,U.S. Energy Information Administration,10.94,10.52,10.9,11.97,10.38,WIND-V1,WIND-V1,WIND-V1,WIND-V1,WIND-V1,Illinois
Combine Hills I,USA0056195,43,45.943,-118.591,Wind,,,,2004,Eurus Combine Hills I LLC,U.S. Energy Information Administration,http://www.eia.gov/electricity/data/browser/,U.S. Energy Information Administration,50654,2019,102.602,107.566,91.035,116.764,93.507,113.681,87.601,U.S. Energy Information Administration,126.38,119.25,147.16,114.78,114.98,WIND-V1,WIND-V1,WIND-V1,WIND-V1,WIND-V1,Oregon
Community Wind North LLC,USA0057385,30,44.2456,-96.4064,Wind,,,,2011,Longroad Energy Services LLC,U.S. Energy Information Administration,http://www.eia.gov/electricity/data/browser/,U.S. Energy Information Administration,62679,2019,94.423,102.38,93.859,99.185,97.373,5.936,84.674,U.S. Energy Information Administration,120.58,112.04,96,104.78,106.21,WIND-V1,WIND-V1,WIND-V1,WIND-V1,WIND-V1,Minnesota
Community Wind South,USA0058045,30,43.7136,-95.8028,Wind,,,,2013,Greenbacker Renewable Energy Corporation,U.S. Energy Information Administration,http://www.eia.gov/electricity/data/browser/,U.S. Energy Information Administration,65673,2019,107.297,109.376,114.562,119.515,117.291,112.44,109.664,U.S. Energy Information Administration,,128.69,125.68,122.37,109.69,NO-ESTIMATION,WIND-V1,WIND-V1,WIND-V1,WIND-V1,Minnesota
Conception,USA0056537,50.4,40.2572,-94.6722,Wind,,,,2008,CR Clearing  LLC,U.S. Energy Information Administration,http://www.eia.gov/electricity/data/browser/,U.S. Energy Information Administration,56533,2019,124.668,127.169,109.482,115.741,115.775,106.037,101.415,U.S. Energy Information Administration,156,157.1,137.75,138.22,142.49,WIND-V1,WIND-V1,WIND-V1,WIND-V1,WIND-V1,Missouri
Condon Windpower LLC,USA0055739,49.8,45.2766,-120.2794,Wind,,,,2002,Allete Clean Energy,U.S. Energy Information Administration,http://www.eia.gov/electricity/data/browser/,U.S. Energy Information Administration,46880,2019,89.157,99.604,84.165,96.898,90.669,98.535,74.241,U.S. Energy Information Administration,133.37,135.45,124.22,113.61,109.48,WIND-V1,WIND-V1,WIND-V1,WIND-V1,WIND-V1,Oregon
Cooper Farms VW Project,USA0057570,4.5,40.9058,-84.5703,Wind,,,,2012,Cooper Hatchery Inc.,U.S. Energy Information Administration,http://www.eia.gov/electricity/data/browser/,U.S. Energy Information Administration,63498,2019,12.79971,14.463,13.977,13.961,13.661,12.004,12.896,U.S. Energy Information Administration,13.43,12.83,12.07,12.95,10.68,WIND-V1,WIND-V1,WIND-V1,WIND-V1,WIND-V1,Ohio
Copenhagen Wind Farm,USA0058979,79.9,43.9131,-75.6986,Wind,,,,2019,EDF Renewable Asset Holdings  Inc.,U.S. Energy Information Administration,http://www.eia.gov/electricity/data/browser/,U.S. Energy Information Administration,,2019,,,,,,3.561,264.64,U.S. Energy Information Administration,,,,,234.64,NO-ESTIMATION,NO-ESTIMATION,NO-ESTIMATION,NO-ESTIMATION,CAPACITY-FACTOR-V1,New York
Coram Energy LLC,USA0054299,3,35.075,-118.3417,Wind,,,,2005,Brookfield Renewable Trading and Marketing LP,U.S. Energy Information Administration,http://www.eia.gov/electricity/data/browser/,U.S. Energy Information Administration,51957,2019,9.583,8.317,8.592,11.855,10.144,11.56,9.717,U.S. Energy Information Administration,6.12,7.67,6.72,9.98,7.9,WIND-V1,WIND-V1,WIND-V1,WIND-V1,WIND-V1,California
Coram Energy LLC (ECT),USA0054298,7.5,35.0583,-118.3417,Wind,,,,2005,Brookfield Renewable Trading and Marketing LP,U.S. Energy Information Administration,http://www.eia.gov/electricity/data/browser/,U.S. Energy Information Administration,51957,2019,26.587,22.464,20.437,28.31,25.885,26.476,25.544,U.S. Energy Information Administration,18.54,20.12,17.71,25.02,21.38,WIND-V1,WIND-V1,WIND-V1,WIND-V1,WIND-V1,California
Coram Tehachapi,USA0054750,6.5,35.0663,-118.3394,Wind,,,,1992,Brookfield Renewable Trading and Marketing LP,U.S. Energy Information Administration,http://www.eia.gov/electricity/data/browser/,U.S. Energy Information Administration,37647,2019,12.552,13.236,13.012,14.093,12.553,12.579,11.167,U.S. Energy Information Administration,11.14,10.33,12.17,13.02,10.02,WIND-V1,WIND-V1,WIND-V1,WIND-V1,WIND-V1,California
Cotton Plains Wind Farm,USA0060210,50.4,34.0603,-101.1876,Wind,,,,2017,Cotton Plains Wind I  LLC,U.S. Energy Information Administration,http://www.eia.gov/electricity/data/browser/,U.S. Energy Information Administration,,2019,,,,,161.739,197.743,198.02,U.S. Energy Information Administration,,,,,148.01,NO-ESTIMATION,NO-ESTIMATION,NO-ESTIMATION,NO-ESTIMATION,CAPACITY-FACTOR-V1,Texas
Cottonwood Wind Energy Center,USA0061407,89.7,40.2402,-98.406,Wind,,,,2017,Cottonwood Wind Project,U.S. Energy Information Administration,http://www.eia.gov/electricity/data/browser/,U.S. Energy Information Administration,,2019,,,,,68.947,411.668,423.755,U.S. Energy Information Administration,,,,,359.92,NO-ESTIMATION,NO-ESTIMATION,NO-ESTIMATION,NO-ESTIMATION,WIND-V1,Nebraska
Courtenay Wind Farm,USA0058658,200,47.1797,-98.5947,Wind,,,,2017,Northern States Power Co - Minnesota,U.S. Energy Information Administration,http://www.eia.gov/electricity/data/browser/,U.S. Energy Information Administration,67135,2019,,,,86.382,777.048,714.237,709.772,U.S. Energy Information Administration,,,,,587.34,NO-ESTIMATION,NO-ESTIMATION,NO-ESTIMATION,NO-ESTIMATION,CAPACITY-FACTOR-V1,North Dakota
Cow Branch,USA0056536,50.4,40.4535,-95.4683,Wind,,,,2008,Cow Branch Wind Power  LLC,U.S. Energy Information Administration,http://www.eia.gov/electricity/data/browser/,U.S. Energy Information Administration,55999,2019,120.611,128.913,103.678,114.889,119.21,103.828,102.162,U.S. Energy Information Administration,176.18,162.82,136.02,149.43,150.9,WIND-V1,WIND-V1,WIND-V1,WIND-V1,WIND-V1,Missouri
Coyote Ridge,USA0061047,96.7,44.45,-96.55,Wind,,,,2020,Coyote Ridge LLC,U.S. Energy Information Administration,http://www.eia.gov/electricity/data/browser/,U.S. Energy Information Administration,,2019,,,,,,,7.856,U.S. Energy Information Administration,,,,,283.98,NO-ESTIMATION,NO-ESTIMATION,NO-ESTIMATION,NO-ESTIMATION,CAPACITY-FACTOR-V1,South Dakota
Crane Creek Wind Energy Center,USA0056831,99,43.3978,-92.4736,Wind,,,,2010,Wisconsin Public Service Corp,U.S. Energy Information Administration,http://www.eia.gov/electricity/data/browser/,U.S. Energy Information Administration,57636,2019,295.055,312.441,287.17,276.673,286.985,260.605,249.281,U.S. Energy Information Administration,363.37,377.19,328.86,325.88,306.85,WIND-V1,WIND-V1,WIND-V1,WIND-V1,WIND-V1,Iowa
Crescent Ridge,USA0056297,53,41.25,-89.5708,Wind,,,,2006,Leeward Asset Management  LLC,U.S. Energy Information Administration,http://www.eia.gov/electricity/data/browser/,U.S. Energy Information Administration,50032,2019,140.893,147.864,155.945,146.775,159.284,142.699,152.207,U.S. Energy Information Administration,147.4,150.03,147.68,148.39,156.16,WIND-V1,WIND-V1,WIND-V1,WIND-V1,WIND-V1,Illinois
Creston Ridge II  LLC,USA0061668,6.9,41.677,-97.391,Wind,,,,2017,Creston Ridge II  LLC,U.S. Energy Information Administration,http://www.eia.gov/electricity/data/browser/,U.S. Energy Information Administration,,2019,,,,,14.28,30.553,28.829,U.S. Energy Information Administration,,,,,20.26,NO-ESTIMATION,NO-ESTIMATION,NO-ESTIMATION,NO-ESTIMATION,CAPACITY-FACTOR-V1,Nebraska
Creston Ridge Wind Farm,USA0060932,6.8,41.678,-97.386,Wind,,,,2016,Creston Ridge  LLC,U.S. Energy Information Administration,http://www.eia.gov/electricity/data/browser/,U.S. Energy Information Administration,68890,2019,,,,33.424,30.254,29.14,27.593,U.S. Energy Information Administration,,,,,27.36,NO-ESTIMATION,NO-ESTIMATION,NO-ESTIMATION,NO-ESTIMATION,WIND-V1,Nebraska
Criterion,USA0057300,70,39.4047,-79.29,Wind,,,,2011,Criterion Power Partners LLC,U.S. Energy Information Administration,http://www.eia.gov/electricity/data/browser/,U.S. Energy Information Administration,50727,2019,175.372,174.598,170.193,182.563,189.723,194.413,171.616,U.S. Energy Information Administration,234.71,211.79,222.75,221.55,213.99,WIND-V1,WIND-V1,WIND-V1,WIND-V1,WIND-V1,Maryland
Crocker Wind Farm,USA0060505,200,45.0515,-97.8264,Wind,,,,2019,Crocker Wind Farm  LLC,U.S. Energy Information Administration,http://www.eia.gov/electricity/data/browser/,U.S. Energy Information Administration,,2019,,,,,,,101.065,U.S. Energy Information Administration,,,,,587.34,NO-ESTIMATION,NO-ESTIMATION,NO-ESTIMATION,NO-ESTIMATION,CAPACITY-FACTOR-V1,South Dakota
Crofton Bluffs Wind LLC,USA0057278,40,42.6983,-97.58,Wind,,,,2012,NRG Energy Gas & Wind Holdings Inc,U.S. Energy Information Administration,http://www.eia.gov/electricity/data/browser/,U.S. Energy Information Administration,58319,2019,168.717,177.965,172.882,177.227,162.148,158.696,157.326,U.S. Energy Information Administration,165.87,167.15,158.81,139.14,130.63,WIND-V1,WIND-V1,WIND-V1,WIND-V1,WIND-V1,Nebraska
Cross Winds Energy Park,USA0058830,230.9,43.6103,-83.4856,Wind,,,,2017.215245,Consumers Energy Co,U.S. Energy Information Administration,http://www.eia.gov/electricity/data/browser/,U.S. Energy Information Administration,63872,2019,,21.389,364.828,372.605,335.504,492.617,472.625,U.S. Energy Information Administration,,,,382.7,395.44,NO-ESTIMATION,NO-ESTIMATION,NO-ESTIMATION,WIND-V1,WIND-V1,Michigan
Crossroads Wind Farm,USA0057332,227,36.035,-98.7222,Wind,,,,2012,Oklahoma Gas & Electric Co,U.S. Energy Information Administration,http://www.eia.gov/electricity/data/browser/,U.S. Energy Information Administration,61562,2019,882.35,919.033,803.518,773.976,814.82,751.255,820.318,U.S. Energy Information Administration,899.66,914.19,821.03,793.48,759.12,WIND-V1,WIND-V1,WIND-V1,WIND-V1,WIND-V1,Oklahoma
